,code,name,addr,latitude,longitude,remain_stat,stock_at,created_at
0,12835714,건강샘온누리약국,"서울특별시 구로구 경인로 661 219동 237호 (신도림동, 신도림1차푸르지오)",37.5094198,126.8877241,break,2020/04/27 09:40:00,2020/05/03 23:55:00
1,11852429,항동푸른약국,서울특별시 구로구 항동로3길 6 가온 프라자 105호 (항동),37.4810296,126.8245415,break,2020/05/16 08:58:00,2020/05/16 15:00:00
2,12863807,구로솔약국,서울특별시 구로구 경인로 433 (고척동),37.4997039,126.8669964,break,2020/05/16 09:54:00,2020/05/16 15:00:00
3,12822621,상산약국,서울특별시 구로구 중앙로 19 1층 (고척동),37.499739,126.8634911,break,2020/05/16 11:36:00,2020/05/16 15:00:00
4,12864277,한사랑약국,서울특별시 구로구 신도림로 7 금강리빙스텔 123호 (신도림동),37.5063533,126.8772301,break,2020/05/16 08:51:00,2020/05/16 15:00:00
5,12835447,늘사랑약국,서울특별시 구로구 개봉로3길 59 (개봉동),37.4860606,126.8529823,break,2020/05/16 09:09:00,2020/05/16 15:00:00
6,12830160,한빛약국,"서울특별시 구로구 경인로 164 3층 (오류동, 대일빌딩)",37.4940323,126.839986,break,2020/05/15 09:39:00,2020/05/16 15:00:00
7,12823732,샘물약국,서울특별시 구로구 구로동로20길 6 (구로동),37.4888164,126.8848325,break,2020/05/16 08:47:00,2020/05/16 15:00:00
8,11869780,초지약국,"서울특별시 구로구 구로동로 240 (구로동, 세일빌딩)",37.4999929,126.8827321,break,2020/05/16 09:01:00,2020/05/16 15:00:00
9,11871415,수정약국,"서울특별시 구로구 경인로 319 401호 (개봉동, 대림프라자)",37.4976102,126.8556191,break,2020/05/16 08:35:00,2020/05/16 15:00:00
10,12843415,플러스약국,"서울특별시 구로구 경인로 661 (신도림동, 신도림1차푸르지오)",37.5094195,126.8877239,break,2020/05/09 10:52:00,2020/05/10 23:55:00
11,11847123,은성약국,"서울특별시 구로구 신도림로19길 7 (신도림동, 성광빌딩)",37.511267,126.8844653,break,2020/05/16 09:42:00,2020/05/16 15:00:00
12,12824097,제일약국,서울특별시 구로구 고척로 148 (고척동),37.502784,126.8501913,break,2020/05/16 08:34:00,2020/05/16 15:00:00
13,12848352,은약국,"서울특별시 구로구 시흥대로 551 3층 (구로동, 광희빌딩)",37.4825399,126.9002463,break,2020/05/16 09:25:00,2020/05/16 15:00:00
14,11808071,비타민약국,서울특별시 구로구 구로동로 115 청보빌딩 지하1층 (구로동),37.4887723,126.8842671,break,2020/05/16 09:08:00,2020/05/16 15:00:00
15,12836915,나은약국,서울특별시 구로구 구로동로28길 99 (구로동),37.4919717,126.8892407,break,2020/05/16 08:33:00,2020/05/16 15:00:00
16,12837679,햇살약국,"서울특별시 구로구 경인로67길 23 (신도림동,대우푸르지오2차 101동 311호)",37.5104624,126.8894256,empty,2020/05/16 11:58:00,2020/05/16 15:00:00
17,11870133,아름솔약국,"서울특별시 구로구 경인로53길 15 (구로동, 중앙유통단지)",37.5008451,126.8745566,empty,2020/05/15 09:07:00,2020/05/16 15:00:00
18,12851175,세계로온누리약국,"서울특별시 구로구 경인로 643 1층 (신도림동, 동아2차아파트상가)",37.5090558,126.885815,empty,2020/05/16 10:21:00,2020/05/16 15:00:00
19,12815454,모스팜약국,서울특별시 구로구 새말로 97 신도림테크노마트 지하1층 BS026호 (구로동),37.5070439,126.8902273,empty,2020/05/16 13:34:00,2020/05/16 15:00:00
20,12847623,제이약국,서울특별시 구로구 디지털로34길 55 코오롱싸이언스밸리2차 2층 214-1호 (구로동),37.4841595,126.8994585,empty,2020/05/16 09:06:00,2020/05/16 15:00:00
21,12847089,새튼튼약국,"서울특별시 구로구 경인로 661 2층 211-1호 (신도림동, 신도림1차푸르지오)",37.5095178,126.8877039,empty,2020/03/16 09:00:00,2020/03/22 23:55:00
22,12847046,그린약국,서울특별시 구로구 디지털로33길 11 (구로동),37.4856729,126.8954779,empty,2020/05/16 09:14:00,2020/05/16 15:00:00
23,12844331,시티프라자약국,"서울특별시 구로구 경인로 176 1층 105,106호호 (오류동, 시티월드)",37.494449,126.841007,empty,2020/05/16 09:04:00,2020/05/16 15:00:00
24,12800091,디큐브약국,"서울특별시 구로구 경인로 662 (신도림동, 디큐브시티 타워동 지하1층)",37.5083236,126.8884274,empty,2020/05/16 10:04:00,2020/05/16 15:00:00
25,12833045,대림약국,"서울특별시 구로구 신도림로 16 주상가동 209호 (신도림동, 대림2차)",37.5055754,126.8779061,empty,2020/05/16 08:56:00,2020/05/16 15:00:00
26,12841277,정성약국,"서울특별시 구로구 경인로 373 2층 (고척동, 문화골든타워)",37.4969239,126.8619052,empty,2020/05/16 09:00:00,2020/05/16 15:00:00
27,12869767,365열린약국,서울특별시 구로구 남부순환로97길 3 KS프리미어빌딩 105호 (개봉동),37.4940221,126.8582496,empty,2020/05/16 09:02:00,2020/05/16 15:00:00
28,11811838,명문약국,서울특별시 구로구 디지털로32길 97-39 (구로동),37.4842667,126.9013723,empty,2020/04/03 12:16:00,2020/04/05 23:55:00
29,12868736,정약국,서울특별시 구로구 개봉로 57-1 (개봉동),37.4908242,126.8557507,empty,2020/05/16 09:14:00,2020/05/16 15:00:00
30,12863459,강서약국,서울특별시 구로구 개봉로19길 21 (개봉동),37.4929888,126.8558563,empty,2020/05/16 08:43:00,2020/05/16 15:00:00
31,12829102,참조은약국,서울특별시 구로구 경인로 433-1 (고척동),37.4998057,126.867025,empty,2020/05/16 08:31:00,2020/05/16 15:00:00
32,12867314,세명약국,서울특별시 구로구 오류로8길 16 세명프라자 201호 (오류동),37.4910061,126.8415186,empty,2020/05/16 09:03:00,2020/05/16 15:00:00
33,12865800,사랑약국,서울특별시 구로구 경인로 565 삼영빌딩 5층 (구로동),37.5036422,126.879722,empty,2020/05/16 09:01:00,2020/05/16 15:00:00
34,12867306,굿모닝온누리약국,"서울특별시 구로구 경인로67길 23 (신도림동, 신도림2차푸르지오)",37.5105879,126.8894776,empty,2020/05/16 07:51:00,2020/05/16 15:00:00
35,12866199,굿모닝약국,서울특별시 구로구 개봉로 57 (개봉동),37.4907367,126.8557608,empty,2020/05/16 09:22:00,2020/05/16 15:00:00
36,12867136,팜프라자약국,서울특별시 구로구 디지털로 300 지밸리비즈플라자 지하1층 16호 (구로동),37.4850307,126.8966116,empty,2020/05/16 10:31:00,2020/05/16 15:00:00
37,11813571,세종당약국,서울특별시 구로구 경인로35길 64 (개봉동),37.4995464,126.8531223,empty,2020/05/12 17:43:00,2020/05/16 15:00:00
38,12837105,황금당약국,서울특별시 구로구 디지털로32길 79 1층 (구로동),37.4835559,126.8997739,few,2020/05/16 08:28:00,2020/05/16 15:00:00
39,11896698,새우리약국,"서울특별시 구로구 개봉로 71 2층 (개봉동, 강서프라자)",37.4920943,126.8556688,few,2020/05/11 10:00:00,2020/05/16 15:00:00
40,12838225,주차장바로약국,"서울특별시 구로구 가마산로 220 (구로동, 동성빌딩)",37.4934672,126.8856382,few,2020/05/15 09:12:00,2020/05/16 15:00:00
41,12838021,우산약국,서울특별시 구로구 구로동로 112-2 (구로동),37.4886839,126.8848372,few,2020/05/16 09:14:00,2020/05/16 15:00:00
42,12825573,하늘약국,"서울특별시 구로구 시흥대로 547 (구로동, 금강빌딩)",37.4821457,126.9004061,few,2020/05/16 08:58:00,2020/05/16 15:00:00
43,12824020,구로시장약국,서울특별시 구로구 구로동로26길 37 (구로동),37.4902711,126.8862271,few,2020/05/14 13:16:00,2020/05/16 15:00:00
44,12863521,태평양약국,서울특별시 구로구 경서로 6 (고척동),37.4980369,126.8569425,few,2020/05/16 08:21:00,2020/05/16 15:00:00
45,11813695,메디팜제일약국,서울특별시 구로구 오리로 1270 (궁동),37.4950132,126.830791,few,2020/05/16 13:08:00,2020/05/16 15:00:00
46,11833475,기린약국,서울특별시 구로구 구로동로 215-1 (구로동),37.4978591,126.8822956,few,2020/05/15 08:53:00,2020/05/16 15:00:00
47,12836371,온누리좋은약국,서울특별시 구로구 가마산로 244 동헌빌딩 (구로동),37.4946007,126.8880523,few,2020/05/16 08:51:00,2020/05/16 15:00:00
48,11814012,구민옵티마약국,"서울특별시 구로구 구로중앙로18길 68 (구로동, 신구로현대아파트)",37.4963826,126.8929603,no_data,no_data,2020/03/08 13:35:00
49,12832791,더블유스토어푸른약국,"서울특별시 구로구 도림로 73 (구로동, 인성빌딩)",37.4898649,126.8915271,plenty,2020/05/16 11:04:00,2020/05/16 15:00:00
50,12840327,다나약국,서울특별시 구로구 경인로 216 (오류동),37.4961441,126.8448776,plenty,2020/05/16 13:37:00,2020/05/16 15:00:00
51,12839868,우리약국,"서울특별시 구로구 오류로8길 57 (오류동, 대성빌딩)",37.4924145,126.8434067,plenty,2020/05/16 08:36:00,2020/05/16 15:00:00
52,12838799,대림우리약국,서울특별시 구로구 도림로 92 (구로동),37.4905151,126.8935514,plenty,2020/05/16 09:07:00,2020/05/16 15:00:00
53,12838365,1번약국,서울특별시 구로구 구로동로 132 (구로동),37.4904265,126.8843311,plenty,2020/05/16 08:37:00,2020/05/16 15:00:00
54,12831522,구로종로약국,서울특별시 구로구 경인로 193 (오류동),37.4957903,126.8425929,plenty,2020/05/16 08:57:00,2020/05/16 15:00:00
55,12828823,태영프라자약국,서울특별시 구로구 경인로59길 8 (신도림동),37.506338,126.88327,plenty,2020/05/16 09:02:00,2020/05/16 15:00:00
56,12833321,아침햇살약국,"서울특별시 구로구 시흥대로 561 (구로동, 동해빌딩)",37.4832647,126.9012487,plenty,2020/05/14 13:14:00,2020/05/16 15:00:00
57,12833690,하나약국,서울특별시 구로구 구로동로 179 (구로동),37.4944099,126.8825703,plenty,2020/05/16 10:29:00,2020/05/16 15:00:00
58,12831042,진솔약국,서울특별시 구로구 경인로 211-1 (오류동),37.4965396,126.8443621,plenty,2020/05/16 11:23:00,2020/05/16 15:00:00
59,12829889,대성약국,"서울특별시 구로구 개봉로3길 35 (개봉동, 성은빌딩)",37.4861749,126.8543242,plenty,2020/05/16 10:02:00,2020/05/16 15:00:00
60,12836249,대우프라자약국,"서울특별시 구로구 고척로 237 (고척동, 부성빌딩)",37.5066408,126.8592988,plenty,2020/05/16 10:09:00,2020/05/16 15:00:00
61,12831506,오류중앙약국,서울특별시 구로구 경인로 195 (오류동),37.4958394,126.842856,plenty,2020/05/16 08:22:00,2020/05/16 15:00:00
62,12831751,즐거운약국,서울특별시 구로구 경인로 320 (개봉동),37.4971058,126.8557556,plenty,2020/05/16 08:33:00,2020/05/16 15:00:00
63,12850781,초록약국,"서울특별시 구로구 구일로4길 46 204호 (구로동, 현대연예인아파트)",37.4929871,126.8771082,plenty,2020/05/16 09:39:00,2020/05/16 15:00:00
64,12843717,옵티마건강약국,서울특별시 구로구 경인로 315 (개봉동),37.4975216,126.8553387,plenty,2020/05/16 10:00:00,2020/05/16 15:00:00
65,12868221,태영약국,"서울특별시 구로구 새말로 89 108,109호 (구로동)",37.5056084,126.8898406,plenty,2020/05/16 09:34:00,2020/05/16 15:00:00
66,12867667,남구로약국,서울특별시 구로구 구로동로 33 (가리봉동),37.4845983,126.886052,plenty,2020/05/16 13:12:00,2020/05/16 15:00:00
67,12867055,라라약국,서울특별시 구로구 고척로 203 (고척동),37.5053178,126.8558317,plenty,2020/05/12 09:35:00,2020/05/16 15:00:00
68,12866130,보건당약국,서울특별시 구로구 구로동로26길 116 (구로동),37.4899316,126.8904021,plenty,2020/05/15 19:06:00,2020/05/16 15:00:00
69,12865869,코끼리약국,서울특별시 구로구 천왕로 32 천왕에이스프라자 103호 (천왕동),37.4805842,126.839777,plenty,2020/05/16 10:46:00,2020/05/16 15:00:00
70,12865737,성인약국,서울특별시 구로구 개봉로 9 (개봉동),37.4865468,126.8561874,plenty,2020/05/16 08:46:00,2020/05/16 15:00:00
71,12864391,해솔온누리약국,서울특별시 구로구 구일로4길 30 신영상가 102호 (구로동),37.4918818,126.8764581,plenty,2020/05/16 07:48:00,2020/05/16 15:00:00
72,12864269,구로미소약국,서울특별시 구로구 서해안로 2338 (오류동),37.4934967,126.8441772,plenty,2020/05/16 12:54:00,2020/05/16 15:00:00
73,12863432,후문약국,서울특별시 구로구 가마산로 222 (구로동),37.4935078,126.8858015,plenty,2020/05/16 13:15:00,2020/05/16 15:00:00
74,12863190,연세온누리약국,서울특별시 구로구 신도림로 2 엘림빌딩 1층 (신도림동),37.5055882,126.877286,plenty,2020/05/16 09:03:00,2020/05/16 15:00:00
75,12862193,개성약국,"서울특별시 구로구 경인로 176 308호 (오류동, 시티월드)",37.494426,126.840987,plenty,2020/05/16 09:29:00,2020/05/16 15:00:00
76,12861553,다드림약국,서울특별시 구로구 가마산로 211 101호 (구로동),37.4935825,126.8845105,plenty,2020/05/11 09:00:00,2020/05/16 15:00:00
77,12860671,신도약국,"서울특별시 구로구 중앙로 60 (고척동, 강산메디칼프라자)",37.5031158,126.862572,plenty,2020/05/16 09:00:00,2020/05/16 15:00:00
78,12843024,동의당한약국,서울특별시 구로구 도림로 31 2층 (구로동),37.4872107,126.8879639,plenty,2020/05/16 13:33:00,2020/05/16 15:00:00
79,12860221,구일중앙약국,"서울특별시 구로구 구일로 110 305호 (구로동, 해원리버파크)",37.4950768,126.8720017,plenty,2020/05/16 08:34:00,2020/05/16 15:00:00
80,12857831,구로프라자온누리약국,"서울특별시 구로구 개봉로 30 (개봉동, 로얄타워)",37.4882504,126.8565271,plenty,2020/05/16 08:36:00,2020/05/16 15:00:00
81,12857335,우리네온누리약국,서울특별시 구로구 디지털로27길 116 (구로동),37.4848966,126.8879775,plenty,2020/05/16 08:18:00,2020/05/16 15:00:00
82,12853097,새서울약국,서울특별시 구로구 가마산로 268 대림역와이즈플레이스 108호 (구로동),37.4957168,126.8902483,plenty,2020/05/16 09:01:00,2020/05/16 15:00:00
83,12852953,아이사랑태평양약국,"서울특별시 구로구 새말로 15 101호일부,102호 (구로동, 삼전솔하임)",37.5021356,126.8824677,plenty,2020/05/16 09:03:00,2020/05/16 15:00:00
84,12852279,참온누리약국,"서울특별시 구로구 오리로 1149 B108호 (오류동, 랑데르)",37.4866109,126.8382668,plenty,2020/05/15 13:47:00,2020/05/16 15:00:00
85,12851922,민트약국,"서울특별시 구로구 경인로 482 (구로동, 롯데마트구로점)",37.4981863,126.8727711,plenty,2020/05/16 10:07:00,2020/05/16 15:00:00
86,12851701,믿음약국,서울특별시 구로구 고척로21나길 17 (개봉동),37.5027022,126.8447697,plenty,2020/05/16 11:13:00,2020/05/16 15:00:00
87,12851515,한중약국,서울특별시 구로구 구로동로 8 (가리봉동),37.4824419,126.8873316,plenty,2020/05/15 09:46:00,2020/05/16 15:00:00
88,12849499,장약국,서울특별시 구로구 공원로8길 23 (구로동),37.5033587,126.89056,plenty,2020/05/16 09:04:00,2020/05/16 15:00:00
89,12848697,개봉지예당약국,서울특별시 구로구 고척로 123-1 (개봉동),37.5022267,126.8478161,plenty,2020/05/16 11:43:00,2020/05/16 15:00:00
90,12846708,인정약국,서울특별시 구로구 서해안로 2296 (오류동),37.4912147,126.8404114,plenty,2020/05/16 12:06:00,2020/05/16 15:00:00
91,12845701,두산약국,서울특별시 구로구 구로중앙로 16 1층 (구로동),37.4918439,126.8920599,plenty,2020/05/16 09:44:00,2020/05/16 15:00:00
92,12844411,태양약국,서울특별시 구로구 경인로 191 (오류동),37.4956425,126.8423266,plenty,2020/05/16 11:14:00,2020/05/16 15:00:00
93,12859541,한마음약국,서울특별시 구로구 도림로 67 (구로동),37.4895188,126.8910281,plenty,2020/05/16 11:28:00,2020/05/16 15:00:00
94,12827291,래미안나나약국,"서울특별시 구로구 디지털로31길 86 (구로동, 삼성래미안아파트)",37.4866667,126.891386,plenty,2020/05/16 10:33:00,2020/05/16 15:00:00
95,12869881,푸른약국,"서울특별시 구로구 남부순환로 775 상가106동 103호 (개봉동, 개봉푸르지오)",37.5007938,126.8479386,plenty,2020/05/16 08:48:00,2020/05/16 15:00:00
96,12824879,부강약국,서울특별시 구로구 중앙로14길 27 104호 (고척동),37.5073388,126.8628779,plenty,2020/05/15 17:47:00,2020/05/16 15:00:00
97,11827211,서울센타약국,"서울특별시 구로구 구로동로 151 (구로동, 코지하우스)",37.4921651,126.8834639,plenty,2020/05/16 12:57:00,2020/05/16 15:00:00
98,11847778,바다약국,"서울특별시 구로구 구로중앙로 60 3층 (구로동, 대림오페라타워)",37.495142,126.8894253,plenty,2020/05/16 12:05:00,2020/05/16 15:00:00
99,11852682,스타약국,"서울특별시 구로구 경인로 572 (구로동, 스타팰리스)",37.5033033,126.881111,plenty,2020/05/16 11:32:00,2020/05/16 15:00:00
100,11860456,미문약국,서울특별시 구로구 구로동로 77 동해빌딩 지하1층 (구로동),37.4855574,126.8855797,plenty,2020/05/16 08:29:00,2020/05/16 15:00:00
101,11867175,녹십자약국,서울특별시 구로구 구로동로28길 2 (구로동),37.4906894,126.8843009,plenty,2020/05/15 08:45:00,2020/05/16 15:00:00
102,11874031,온누리백제약국,"서울특별시 구로구 고척로 212 102호 (고척동, 오토젠빌딩)",37.505298,126.8570018,plenty,2020/05/15 11:14:00,2020/05/16 15:00:00
103,11824085,새녹십자약국,서울특별시 구로구 구로중앙로28길 65 (구로동),37.5004338,126.888936,plenty,2020/05/16 09:33:00,2020/05/16 15:00:00
104,11874279,해솔약국,서울특별시 구로구 경인로 393-7 일이삼전자타운 2동 1층 120호 (고척동),37.4974484,126.8630394,plenty,2020/05/16 09:10:00,2020/05/16 15:00:00
105,11877219,오류온누리약국,서울특별시 구로구 경인로 201 (오류동),37.4960229,126.8432515,plenty,2020/05/16 08:50:00,2020/05/16 15:00:00
106,11877481,새수정약국,서울특별시 구로구 오리로 1286 (궁동),37.4962866,126.8300121,plenty,2020/05/16 09:35:00,2020/05/16 15:00:00
107,11880953,상아약국,"서울특별시 구로구 중앙로 100 연세사랑모아여성병원 104,105호 (고척동)",37.5063641,126.8606071,plenty,2020/05/16 09:06:00,2020/05/16 15:00:00
108,11882352,정문약국,서울특별시 구로구 구로동로 149 (구로동),37.4918925,126.8835387,plenty,2020/05/16 08:57:00,2020/05/16 15:00:00
109,12825964,대학약국,서울특별시 구로구 구로동로 149-1 (구로동),37.4919993,126.8835072,plenty,2020/05/16 10:20:00,2020/05/16 15:00:00
110,11891858,타워약국,"서울특별시 구로구 디지털로 288 1층 104호 (구로동, 대륭포스트타워1차)",37.4837318,126.8953657,plenty,2020/05/15 13:17:00,2020/05/16 15:00:00
111,11875011,뿌리약국,"서울특별시 구로구 경인로53길 15 (구로동, 중앙유통단지)",37.5008451,126.8745566,plenty,2020/05/15 09:50:00,2020/05/16 15:00:00
112,11820071,새하늘약국,서울특별시 구로구 개봉로20길 6 (개봉동),37.4924268,126.8583212,plenty,2020/05/16 08:53:00,2020/05/16 15:00:00
113,11816376,W스토아청와약국,서울특별시 구로구 디지털로 227 (가리봉동),37.480474,126.8909287,plenty,2020/05/16 10:01:00,2020/05/16 15:00:00
114,11816261,온수약국,서울특별시 구로구 부일로1길 22 (온수동),37.4921899,126.8208166,plenty,2020/05/16 08:21:00,2020/05/16 15:00:00
115,11807075,온누리최정숙약국,"서울특별시 구로구 중앙로1길 36 (고척동, 2001아울렛)",37.4981036,126.8626627,plenty,2020/05/16 09:00:00,2020/05/16 15:00:00
116,11812567,505약국,서울특별시 구로구 구로동로42길 58 (구로동),37.4982512,126.8843155,plenty,2020/05/16 10:26:00,2020/05/16 15:00:00
117,11813229,한솔약국,서울특별시 구로구 경인로 215 (오류동),37.4966958,126.8448259,plenty,2020/05/16 12:26:00,2020/05/16 15:00:00
118,11813288,유풍약국,서울특별시 구로구 경인로47길 54 (고척동),37.5014988,126.8653254,plenty,2020/05/16 08:47:00,2020/05/16 15:00:00
119,11813377,온누리십자당약국,서울특별시 구로구 구로동로 173 (구로동),37.4939416,126.8829021,plenty,2020/05/16 10:48:00,2020/05/16 15:00:00
120,11813407,개미프라자약국,서울특별시 구로구 구로동로35길 46 (구로동),37.4923314,126.8820301,plenty,2020/05/16 08:20:00,2020/05/16 15:00:00
121,11813474,흥부약국,서울특별시 구로구 새말로 83 (구로동),37.5052145,126.8890672,plenty,2020/05/16 09:33:00,2020/05/16 15:00:00
122,11813644,장수약국,서울특별시 구로구 경인로47길 94 (고척동),37.5028607,126.8641864,plenty,2020/05/16 09:28:00,2020/05/16 15:00:00
123,11813814,정광약국,서울특별시 구로구 남부순환로97길 11 (개봉동),37.4942568,126.8583773,plenty,2020/05/16 10:42:00,2020/05/16 15:00:00
124,11814071,구로메디칼약국,서울특별시 구로구 경인로 431 (고척동),37.4996447,126.8668603,plenty,2020/05/14 08:16:00,2020/05/16 15:00:00
125,11814101,원일약국,서울특별시 구로구 중앙로15길 29 (고척동),37.5063449,126.8581742,plenty,2020/05/15 18:53:00,2020/05/16 15:00:00
126,11815108,동성약국,서울특별시 구로구 우마2길 24 (가리봉동),37.4820493,126.8892465,plenty,2020/05/16 13:04:00,2020/05/16 15:00:00
127,11815167,구림약국,서울특별시 구로구 남부순환로105길 52 (가리봉동),37.4796565,126.889921,plenty,2020/05/16 10:07:00,2020/05/16 15:00:00
128,11815361,용해약국,서울특별시 구로구 도림로 29 (구로동),37.4870956,126.8878429,plenty,2020/05/16 10:27:00,2020/05/16 15:00:00
129,11815442,동해물약국,서울특별시 구로구 구로동로 138 (구로동),37.4908318,126.8843403,plenty,2020/05/15 08:37:00,2020/05/16 15:00:00
130,11894024,그린프라자약국,"서울특별시 구로구 구로동로 137 (구로동, GS 칼텍스)",37.4910161,126.8835185,plenty,2020/05/16 08:37:00,2020/05/16 15:00:00
131,11896663,차기정약국,서울특별시 구로구 개봉로3길 76 (개봉동),37.4862558,126.8520967,plenty,2020/05/16 10:22:00,2020/05/16 15:00:00
132,11884789,종로프라자약국,"서울특별시 구로구 구로중앙로 17 (구로동, 종로프라자)",37.4916052,126.8915647,plenty,2020/05/16 08:38:00,2020/05/16 15:00:00
133,12810851,현대파크빌약국,"서울특별시 구로구 공원로 41 (구로동, 현대파크빌)",37.5003843,126.8898944,plenty,2020/05/15 16:10:00,2020/05/16 15:00:00
134,12815942,열린약국,서울특별시 구로구 고척로 142-1 (고척동),37.5026542,126.849844,plenty,2020/05/16 12:49:00,2020/05/16 15:00:00
135,12817856,메디칼바른약국,"서울특별시 구로구 공원로7길 40 1층 (구로동, 대영빌딩)",37.5014993,126.8869066,plenty,2020/05/16 08:09:00,2020/05/16 15:00:00
136,12814580,참좋은약국,서울특별시 구로구 구로중앙로 134 4층 (구로동),37.4999176,126.8846199,plenty,2020/05/16 08:31:00,2020/05/16 15:00:00
137,12813737,한독프라자약국,서울특별시 구로구 구로동로26길 133 (구로동),37.4897829,126.8912675,plenty,2020/05/16 09:26:00,2020/05/16 15:00:00
138,12812528,건강온누리약국,서울특별시 구로구 고척로21나길 18 (개봉동),37.5028773,126.8446757,plenty,2020/05/16 06:06:00,2020/05/16 15:00:00
139,12819247,은하약국,서울특별시 구로구 개봉로 46 (개봉동),37.4898185,126.8564439,plenty,2020/05/16 11:10:00,2020/05/16 15:00:00
140,12819344,환도약국,"서울특별시 구로구 구일로4길 46 1층 (구로동, 현대연예인아파트)",37.4923588,126.8762136,plenty,2020/05/16 11:17:00,2020/05/16 15:00:00
141,11898267,보광약국,서울특별시 구로구 구로동로38길 19 (구로동),37.4948999,126.8838895,plenty,2020/05/15 10:38:00,2020/05/16 15:00:00
142,12810746,한마을약국,"서울특별시 구로구 경인로 382 (개봉동, 한마을아파트)",37.4953247,126.8623129,plenty,2020/05/16 11:09:00,2020/05/16 15:00:00
143,12810312,세진약국,서울특별시 구로구 개봉로 63 (개봉동),37.4913886,126.8557055,plenty,2020/05/16 08:50:00,2020/05/16 15:00:00
144,12822116,생천온누리약국,서울특별시 구로구 경인로59길 8 (신도림동),37.50643,126.883426,plenty,2020/05/16 08:37:00,2020/05/16 15:00:00
145,12822221,메디신약국,"서울특별시 구로구 목동남로 32 (고척동, 보광빌딩)",37.5080061,126.8636182,plenty,2020/05/16 10:19:00,2020/05/16 15:00:00
146,12806919,미래약국,"서울특별시 구로구 구로동로 145-6 B동 1,2층 (구로동)",37.4915622,126.8834432,plenty,2020/05/14 08:36:00,2020/05/16 15:00:00
147,12806366,맑은약국,"서울특별시 구로구 경인로40길 47 (개봉동, 개봉역)",37.4945222,126.8591026,plenty,2020/05/16 09:29:00,2020/05/16 15:00:00
148,12816001,좋은약국,서울특별시 구로구 경인로40길 34 (개봉동),37.4954139,126.8588165,plenty,2020/05/16 08:34:00,2020/05/16 15:00:00
149,12805840,온누리자혜약국,서울특별시 구로구 개봉로 66 (개봉동),37.4915599,126.856254,plenty,2020/05/16 08:45:00,2020/05/16 15:00:00
150,12823163,대우약국,서울특별시 구로구 천왕로 106 골드프라자 104호 (오류동),37.4860388,126.8385603,plenty,2020/05/16 08:22:00,2020/05/16 15:00:00
151,12804860,늘푸른약국,서울특별시 구로구 구로중앙로12길 38 (구로동),37.4925494,126.8932473,plenty,2020/05/16 09:26:00,2020/05/16 15:00:00
152,12804665,수약국,서울특별시 구로구 중앙로15길 107 (고척동),37.5073365,126.8539657,plenty,2020/05/16 08:58:00,2020/05/16 15:00:00
153,12823236,성심약국,서울특별시 구로구 경인로20길 6 포스시티 104호 (오류동),37.495415,126.8433978,plenty,2020/05/16 08:29:00,2020/05/16 15:00:00
154,12803316,온누리한라약국,"서울특별시 구로구 구일로10길 49 (구로동, 다원그린빌)",37.4957554,126.8744137,plenty,2020/05/16 09:23:00,2020/05/16 15:00:00
155,12800252,메디팜동진약국,서울특별시 구로구 도림로 75 1층 (구로동),37.4899932,126.8917418,plenty,2020/05/16 12:08:00,2020/05/16 15:00:00
156,12869830,구로참조은약국,서울특별시 구로구 구로동로 78 시몬빌딩 1층 (구로동),37.4858069,126.8858836,plenty,2020/05/16 08:32:00,2020/05/16 15:00:00
157,11899069,온누리사랑의약국,서울특별시 구로구 구로동로15길 17 (구로동),37.4877457,126.883789,plenty,2020/05/15 16:24:00,2020/05/16 15:00:00
158,12824666,에이스약국,"서울특별시 구로구 디지털로 285 104호 (구로동, 에이스트윈타워1차)",37.4844927,126.8945184,plenty,2020/05/16 09:02:00,2020/05/16 15:00:00
159,11898747,수태평양약국,서울특별시 구로구 고척로 144 두발로빌딩 1층 (고척동),37.5026787,126.8499827,plenty,2020/05/16 13:36:00,2020/05/16 15:00:00
160,11898470,백두약국,서울특별시 구로구 오류로8길 26 (오류동),37.4912858,126.8421973,plenty,2020/05/16 11:30:00,2020/05/16 15:00:00
161,12805785,큰사랑약국,"서울특별시 구로구 구로동로26길 119 1층 (구로동, 정엽빌딩)",37.4900723,126.8906419,plenty,2020/05/16 12:06:00,2020/05/16 15:00:00
162,12816051,구로약국,서울특별시 구로구 구로동로 147 MEDI FLOWER 147 1층 (구로동),37.4916644,126.8834138,plenty,2020/05/16 07:57:00,2020/05/16 15:00:00
163,12867527,바른약국,서울특별시 구로구 구로중앙로 212 영삼빌딩 1층 101호 (구로동),37.5049604,126.8778471,some,2020/05/16 08:40:00,2020/05/16 15:00:00
164,12868370,맑은수약국,서울특별시 구로구 개봉로 47 1층 (개봉동),37.4898625,126.8559253,some,2020/05/16 12:25:00,2020/05/16 15:00:00
165,11812427,자명약국,서울특별시 구로구 디지털로 219 (가리봉동),37.4800478,126.8902632,some,2020/05/13 21:09:00,2020/05/16 15:00:00
166,12847259,드림약국,서울특별시 구로구 구로중앙로 8 1층 (구로동),37.4912335,126.8926735,some,2020/05/16 08:31:00,2020/05/16 15:00:00
167,11815795,칠성약국,서울특별시 구로구 부일로15길 4 (궁동),37.493517,126.8344118,some,2020/05/16 10:23:00,2020/05/16 15:00:00
168,11815868,재훈약국,"서울특별시 구로구 시흥대로161가길 17 (구로동, 성은빌라)",37.4801803,126.8980412,some,2020/05/16 09:05:00,2020/05/16 15:00:00
169,12807401,종로약국,서울특별시 구로구 고척로 142 (고척동),37.5025706,126.8496644,some,2020/05/16 08:29:00,2020/05/16 15:00:00
170,12862029,정수메디칼약국,"서울특별시 구로구 구로중앙로 68 101호 (구로동, 신안타워)",37.4958015,126.8887946,some,2020/05/16 09:31:00,2020/05/16 15:00:00
171,11861037,연세열린약국,"서울특별시 구로구 개봉로 23 (개봉동, 고려크리닉센터)",37.4877768,126.8560445,some,2020/05/16 08:35:00,2020/05/16 15:00:00
172,11873094,훼미리약국,서울특별시 구로구 고척로 139 (고척동),37.5027742,126.8492905,some,2020/05/16 08:49:00,2020/05/16 15:00:00
173,12842672,시장약국,서울특별시 구로구 경인로47길 126 (고척동),37.5042153,126.8634997,some,2020/05/15 11:02:00,2020/05/16 15:00:00
174,11899956,부부약국,"서울특별시 구로구 오류로8길 60 (오류동, 우성빌딩)",37.4922386,126.8436844,some,2020/05/16 08:31:00,2020/05/16 15:00:00
175,11899280,일등약국,서울특별시 구로구 구로동로 149 (구로동),37.4919268,126.883551,some,2020/05/16 09:25:00,2020/05/16 15:00:00
176,12844896,신도림제일약국,서울특별시 구로구 새말로 110 세아베스틸 1층 (구로동),37.5063682,126.8921337,some,2020/05/16 08:50:00,2020/05/16 15:00:00
177,11888911,독일약국,"서울특별시 구로구 오리로 1297 (궁동, 청파빌딩)",37.4972442,126.8291144,some,2020/05/16 08:56:00,2020/05/16 15:00:00
178,12864901,살맛나는온누리약국,서울특별시 구로구 서해안로 2098 항동프라자 103호 (항동),37.4800607,126.8232065,some,2020/05/16 08:33:00,2020/05/16 15:00:00
179,11806648,백세비타민약국,"서울특별시 구로구 디지털로26길 98 101호 (구로동, 디지털탑프라자)",37.4815861,126.8973483,some,2020/05/16 10:07:00,2020/05/16 15:00:00
180,11813423,덕우약국,서울특별시 구로구 가마산로22길 33 (구로동),37.4929297,126.8880727,,,
181,11813792,정제약국,서울특별시 구로구 개봉로17길 10 (개봉동),37.4917558,126.8553116,,,
182,11813903,제생약국,"서울특별시 구로구 개봉로3가길 57 (개봉동, 제생약국)",37.483678,126.85348,,,
183,11815400,신효약국,서울특별시 구로구 구로동로9길 9 (구로동),37.4861373,126.8848682,,,
184,11866705,대웅프라자약국,"서울특별시 구로구 새말로 93 (구로동, 신도림태영타운)",37.505999,126.8888636,,,
