,code,name,addr,latitude,longitude,remain_stat,stock_at,created_at
0,12870251,다원약국,서울특별시 금천구 독산로93길 41 (독산동),37.473899,126.9008982,break,2020/05/16 07:47:00,2020/05/16 15:00:00
1,11870397,백산온누리약국,"서울특별시 금천구 금하로 763 313,314호 (시흥동, 벽산중심상가)",37.4503547,126.9145467,break,2020/05/16 08:54:00,2020/05/16 15:00:00
2,11885963,하늘약국,"서울특별시 금천구 금하로 720 306호 (시흥동, 에벤에셀프라자)",37.4504269,126.9094777,break,2020/05/15 16:13:00,2020/05/16 15:00:00
3,11889217,대명약국,"서울특별시 금천구 벚꽃로 298 104호 (가산동, 대륭포스트타워6차)",37.4814002,126.8837813,break,2020/05/16 11:38:00,2020/05/16 15:00:00
4,12801011,하얀약국,서울특별시 금천구 남부순환로 1290 (가산동),37.4783768,126.8940933,break,2020/05/15 11:18:00,2020/05/16 15:00:00
5,12821195,강남약국,"서울특별시 금천구 남부순환로 1372 (독산동, 현경빌딩)",37.4794589,126.9034727,break,2020/05/16 12:14:00,2020/05/16 15:00:00
6,12828696,프라자약국,"서울특별시 금천구 가산디지털1로 168 A/115호 (가산동, 우림라이온스밸리)",37.4799665,126.8826362,break,2020/05/16 14:03:00,2020/05/16 15:00:00
7,11851473,삼층약국,서울특별시 금천구 시흥대로 198 (시흥동),37.4516203,126.9021732,break,2020/05/15 15:47:00,2020/05/16 15:00:00
8,12857378,중앙사약국,"서울특별시 금천구 시흥대로 202 (시흥동, 대의빌딩)",37.4519765,126.9021321,break,2020/05/16 12:38:00,2020/05/16 15:00:00
9,12844039,현약국,"서울특별시 금천구 가산디지털1로 149 1층 103호 (가산동, 신한이노플렉스)",37.4787416,126.8818627,break,2020/05/15 08:33:00,2020/05/16 15:00:00
10,12866563,가디온누리약국,서울특별시 금천구 가산디지털1로 171 가산 에스케이 브이원 센터 1층 117호 (가산동),37.4805563,126.8810963,break,2020/05/14 17:57:00,2020/05/16 15:00:00
11,11812451,세명당약국,서울특별시 금천구 시흥대로58길 5 (시흥동),37.4537305,126.901482,break,2020/05/13 16:37:00,2020/05/16 15:00:00
12,12869848,새우리약국,서울특별시 금천구 디지털로 200 우리은행 가산IT타워 3층 (가산동),37.478246,126.8889358,break,2020/05/16 09:26:00,2020/05/16 15:00:00
13,12861391,대제일약국,서울특별시 금천구 독산로85길 13 (독산동),37.4723148,126.9023974,break,2020/05/16 09:04:00,2020/05/16 15:00:00
14,11828021,독산메디칼약국,서울특별시 금천구 독산로 210 (독산동),37.4657642,126.9022993,break,2020/05/16 11:34:00,2020/05/16 15:00:00
15,12854069,라임약국,"서울특별시 금천구 디지털로9길 56 109호 (가산동, 코오롱테크노밸리)",37.4804028,126.8868682,empty,2020/04/01 09:26:00,2020/04/05 23:55:00
16,12848531,다원약국,서울특별시 금천구 독산로93길 41 (독산동),37.473899,126.9008982,empty,2020/04/06 11:49:00,2020/04/12 23:55:00
17,12863394,봄약국,서울특별시 금천구 가산디지털1로 1 더루벤스밸리 208-1호 (가산동),37.4662866,126.8871454,empty,2020/05/16 10:03:00,2020/05/16 15:00:00
18,12841889,은혜약국,서울특별시 금천구 시흥대로 242 반석빌딩 1층 (시흥동),37.455419,126.9007082,empty,2020/05/16 09:01:00,2020/05/16 15:00:00
19,12833720,한사랑약국,서울특별시 금천구 시흥대로63길 64 1층 (시흥동),37.4557513,126.896103,empty,2020/05/16 08:45:00,2020/05/16 15:00:00
20,12865613,우리캐슬약국,"서울특별시 금천구 시흥대로 291 (독산동, 금천롯데캐슬골드파크3차)",37.4600844,126.8964951,empty,2020/05/16 09:56:00,2020/05/16 15:00:00
21,12826375,은약국,서울특별시 금천구 시흥대로 224 금천리메인시티 102호 (시흥동),37.4539296,126.9013002,empty,2020/05/16 10:02:00,2020/05/16 15:00:00
22,12813109,새연세약국,서울특별시 금천구 독산로 87 1층 (시흥동),37.4551368,126.9056483,empty,2020/03/13 11:26:00,2020/03/15 23:55:00
23,12868850,가산소중한약국,서울특별시 금천구 디지털로9길 68 대륭포스트타워 5차 1층 106호 (가산동),37.4810217,126.8863307,empty,2020/05/16 08:09:00,2020/05/16 15:00:00
24,12868892,드림플러스약국,서울특별시 금천구 디지털로9길 46 이앤씨드림타워7차 201-1호 (가산동),37.4800346,126.8870915,empty,2020/05/15 08:46:00,2020/05/16 15:00:00
25,12801925,리더스약국,서울특별시 금천구 벚꽃로 286 삼성리더스타워 1층 110-1호 (가산동),37.4803344,126.8841305,empty,2020/05/16 09:34:00,2020/05/16 15:00:00
26,11866209,무림약국,서울특별시 금천구 시흥대로 406 (독산동),37.4696868,126.8984176,few,2020/05/16 09:29:00,2020/05/16 15:00:00
27,11815744,세종약국,서울특별시 금천구 독산로 199 (독산동),37.4646824,126.9025488,few,2020/05/16 08:46:00,2020/05/16 15:00:00
28,12852546,기분좋은약국,서울특별시 금천구 시흥대로139길 15 (독산동),37.4727825,126.8972021,few,2020/05/16 10:32:00,2020/05/16 15:00:00
29,11816325,정명약국,"서울특별시 금천구 시흥대로 399 410호 (독산동, 시티렉스)",37.4693592,126.8970019,few,2020/05/16 09:03:00,2020/05/16 15:00:00
30,12868906,마미약국,서울특별시 금천구 금하로 720 에벤에셀프라자 2층 206호 (시흥동),37.4504269,126.9094777,few,2020/05/16 08:34:00,2020/05/16 15:00:00
31,11854090,대인당온누리약국,서울특별시 금천구 시흥대로 237 (시흥동),37.4550211,126.9001008,few,2020/05/15 17:54:00,2020/05/16 15:00:00
32,11888105,현대온누리약국,"서울특별시 금천구 독산로 142 (시흥동, 덕산빌딩)",37.4600939,126.9051086,few,2020/05/16 09:12:00,2020/05/16 15:00:00
33,11812494,명문당약국,"서울특별시 금천구 시흥대로 240 (시흥동, 장안의원)",37.4552912,126.9007192,few,2020/05/16 08:49:00,2020/05/16 15:00:00
34,12806111,굿모닝약국,서울특별시 금천구 독산로 366 (독산동),37.4795977,126.9041309,few,2020/05/16 08:46:00,2020/05/16 15:00:00
35,12849367,비타민약국,서울특별시 금천구 독산로50길 84 (시흥동),37.4624014,126.908866,plenty,2020/05/16 08:33:00,2020/05/16 15:00:00
36,12848808,이든약국,"서울특별시 금천구 서부샛길 606 125호 (가산동, 대성디폴리스)",37.4799926,126.8770398,plenty,2020/05/16 13:48:00,2020/05/16 15:00:00
37,12846520,가산약국,서울특별시 금천구 가산로 116 (가산동),37.4760725,126.8931518,plenty,2020/05/16 09:03:00,2020/05/16 15:00:00
38,11813041,정운약국,"서울특별시 금천구 독산로22가길 24-12 210호 (시흥동, 벽산중심상가동)",37.4538192,126.9113823,plenty,2020/05/15 10:41:00,2020/05/16 15:00:00
39,12842737,예닮약국,서울특별시 금천구 시흥대로 403 (독산동),37.4698014,126.8975075,plenty,2020/05/16 09:28:00,2020/05/16 15:00:00
40,11813113,메디팜대안약국,서울특별시 금천구 시흥대로 352 (독산동),37.4648363,126.8980022,plenty,2020/05/16 09:33:00,2020/05/16 15:00:00
41,12838837,은행나무약국,서울특별시 금천구 금하로 705 2층 (시흥동),37.4515803,126.9083608,plenty,2020/05/15 14:22:00,2020/05/16 15:00:00
42,11815698,경일약국,서울특별시 금천구 시흥대로72길 32 (시흥동),37.4581265,126.9002907,plenty,2020/05/16 08:14:00,2020/05/16 15:00:00
43,12834238,온누리건강약국,서울특별시 금천구 시흥대로 232 (시흥동),37.4546061,126.9009558,plenty,2020/05/16 10:12:00,2020/05/16 15:00:00
44,11813172,새보은약국,서울특별시 금천구 독산로 138 (시흥동),37.4596601,126.9051582,plenty,2020/05/16 08:15:00,2020/05/16 15:00:00
45,12830500,명약국,서울특별시 금천구 시흥대로 473 (독산동),37.4759429,126.8980969,plenty,2020/05/16 09:06:00,2020/05/16 15:00:00
46,12829439,행복한우리약국,서울특별시 금천구 금하로 717 1층 (시흥동),37.4508534,126.9096826,plenty,2020/05/16 10:20:00,2020/05/16 15:00:00
47,11813504,별장약국,서울특별시 금천구 금하로24길 40 (시흥동),37.4491743,126.9082394,plenty,2020/05/16 09:02:00,2020/05/16 15:00:00
48,11813661,대우당약국,서울특별시 금천구 은행나무로 34 (시흥동),37.4506961,126.9061509,plenty,2020/05/14 18:46:00,2020/05/16 15:00:00
49,11815485,신보생약국,서울특별시 금천구 시흥대로148길 37 (독산동),37.4750791,126.9009775,plenty,2020/05/16 14:19:00,2020/05/16 15:00:00
50,12837351,비즈메드약국,서울특별시 금천구 시흥대로 214 (시흥동),37.452992,126.901653,plenty,2020/05/16 09:43:00,2020/05/16 15:00:00
51,12850926,현대약국,"서울특별시 금천구 두산로 70 T-113호 (독산동, 현대지식산업센터)",37.4689627,126.8956207,plenty,2020/05/16 09:22:00,2020/05/16 15:00:00
52,11812796,명보약국,서울특별시 금천구 시흥대로 92 (시흥동),37.4422775,126.9040734,plenty,2020/05/16 08:37:00,2020/05/16 15:00:00
53,12818046,늘사랑온누리약국,서울특별시 금천구 금하로 816 (시흥동),37.4487957,126.919212,plenty,2020/05/16 10:23:00,2020/05/16 15:00:00
54,11810904,늘푸른건강약국,서울특별시 금천구 범안로 1183 (독산동),37.4666993,126.8931107,plenty,2020/05/15 17:07:00,2020/05/16 15:00:00
55,12868868,수약국,서울특별시 금천구 시흥대로 201 삼성홈플러스 지하1층 (시흥동),37.4519048,126.9007948,plenty,2020/05/15 14:11:00,2020/05/16 15:00:00
56,11812443,삼명약국,서울특별시 금천구 독산로 88 (시흥동),37.455253,126.906073,plenty,2020/05/16 11:37:00,2020/05/16 15:00:00
57,12867560,튼튼온누리약국,"서울특별시 금천구 시흥대로 291 310동 279호 (독산동, 금천롯데캐슬골드파크3차)",37.4606071,126.8974542,plenty,2020/05/16 09:35:00,2020/05/16 15:00:00
58,12867497,코끼리약국,서울특별시 금천구 금하로 720 에벤에셀프라자 (시흥동),37.4504709,126.909473,plenty,2020/05/16 08:54:00,2020/05/16 15:00:00
59,12867209,남대문약국,서울특별시 금천구 독산로40길 25 1층 (시흥동),37.4603767,126.9059646,plenty,2020/05/16 11:07:00,2020/05/16 15:00:00
60,12866725,봄빛약국,서울특별시 금천구 가산디지털1로 171 가산 에스케이 브이원 센터 2층 202-1호 (가산동),37.4806919,126.8809791,plenty,2020/05/15 16:28:00,2020/05/16 15:00:00
61,12865907,동행약국,"서울특별시 금천구 시흥대로 291 2층 280호 (독산동, 금천롯데캐슬골드파크3차)",37.4599811,126.8972935,plenty,2020/05/14 14:44:00,2020/05/16 15:00:00
62,11812508,삼화약국,서울특별시 금천구 은행나무로 12-1 (시흥동),37.4500971,126.9040282,plenty,2020/05/16 13:25:00,2020/05/16 15:00:00
63,12865541,하이온누리약국,서울특별시 금천구 가산디지털1로 145 에이스하이엔드타워3차 105호 (가산동),37.4781692,126.8815995,plenty,2020/05/15 12:37:00,2020/05/16 15:00:00
64,12865095,태평양약국,서울특별시 금천구 금하로25길 1 (시흥동),37.4512692,126.9088475,plenty,2020/05/16 11:44:00,2020/05/16 15:00:00
65,11812591,도영약국,서울특별시 금천구 독산로50길 90 (시흥동),37.4623842,126.9091278,plenty,2020/05/16 12:46:00,2020/05/16 15:00:00
66,11812605,고성희약국,서울특별시 금천구 금하로24길 57 (시흥동),37.4484847,126.9088347,plenty,2020/05/16 09:52:00,2020/05/16 15:00:00
67,12858579,나래약국,"서울특별시 금천구 독산로 137 (시흥동, 시흥음악학원)",37.4596306,126.9047632,plenty,2020/05/16 09:31:00,2020/05/16 15:00:00
68,11812630,형제약국,서울특별시 금천구 금하로 707 (시흥동),37.4512771,126.9087387,plenty,2020/05/16 11:11:00,2020/05/16 15:00:00
69,12851191,그린약국,서울특별시 금천구 독산로93길 11 (독산동),37.4738779,126.9026106,plenty,2020/05/16 11:02:00,2020/05/16 15:00:00
70,12817601,약나라약국,서울특별시 금천구 시흥대로 104 1층 (시흥동),37.4433559,126.9041633,plenty,2020/05/16 13:29:00,2020/05/16 15:00:00
71,11814292,수도약국,서울특별시 금천구 가산로3길 93 (독산동),37.472195,126.8903939,plenty,2020/05/16 08:44:00,2020/05/16 15:00:00
72,12815021,한마음약국,서울특별시 금천구 독산로6가길 22 (시흥동),37.4489968,126.9060478,plenty,2020/05/15 10:28:00,2020/05/16 15:00:00
73,11890495,진한약국,서울특별시 금천구 벚꽃로38길 5 (가산동),37.4819237,126.8833345,plenty,2020/05/16 09:11:00,2020/05/16 15:00:00
74,11814781,토마스약국,서울특별시 금천구 시흥대로112길 6 (독산동),37.4674638,126.8992469,plenty,2020/05/15 16:31:00,2020/05/16 15:00:00
75,11814829,천수온누리약국,서울특별시 금천구 가산로 111 (가산동),37.4756322,126.8929356,plenty,2020/05/14 18:58:00,2020/05/16 15:00:00
76,11884461,녹수프라자약국,서울특별시 금천구 독산로 213 (독산동),37.4657728,126.9018055,plenty,2020/05/16 10:42:00,2020/05/16 15:00:00
77,11880490,유아약국,서울특별시 금천구 시흥대로104길 14 (독산동),37.4646086,126.8985363,plenty,2020/05/16 10:07:00,2020/05/16 15:00:00
78,11880104,금약국,서울특별시 금천구 독산로 174 1층 (독산동),37.4628486,126.9042566,plenty,2020/05/16 08:51:00,2020/05/16 15:00:00
79,11876760,정암산약국,서울특별시 금천구 시흥대로 192 (시흥동),37.4511094,126.9023471,plenty,2020/05/16 10:43:00,2020/05/16 15:00:00
80,11876573,성문약국,"서울특별시 금천구 한내로 69-15 1317-107호 (독산동, 주공아파트)",37.4577246,126.8873951,plenty,2020/05/16 14:45:00,2020/05/16 15:00:00
81,11875291,윤경약국,서울특별시 금천구 남부순환로 1426 (독산동),37.4805371,126.9091695,plenty,2020/05/16 08:39:00,2020/05/16 15:00:00
82,12817350,시민약국,서울특별시 금천구 독산로 139 1층 (시흥동),37.4597151,126.904779,plenty,2020/05/16 13:03:00,2020/05/16 15:00:00
83,11874864,우리약국,서울특별시 금천구 시흥대로 211 (시흥동),37.4527079,126.9008813,plenty,2020/05/16 08:56:00,2020/05/16 15:00:00
84,11814870,정진약국,서울특별시 금천구 독산로64길 19 (독산동),37.4653354,126.9036921,plenty,2020/05/16 09:18:00,2020/05/16 15:00:00
85,11868708,천세약국,서울특별시 금천구 시흥대로 274 (독산동),37.4581377,126.899697,plenty,2020/05/15 21:07:00,2020/05/16 15:00:00
86,11865105,고원약국,서울특별시 금천구 시흥대로153길 68 (가산동),37.4768582,126.8947208,plenty,2020/05/16 08:57:00,2020/05/16 15:00:00
87,11814977,문성당약국,서울특별시 금천구 독산로64길 39 (독산동),37.4658749,126.9045493,plenty,2020/05/16 10:21:00,2020/05/16 15:00:00
88,11841664,한중약국,서울특별시 금천구 독산로 136 (시흥동),37.4595132,126.9052382,plenty,2020/05/16 12:17:00,2020/05/16 15:00:00
89,11840048,장수약국,서울특별시 금천구 시흥대로 153 (시흥동),37.4476527,126.9028769,plenty,2020/05/16 08:43:00,2020/05/16 15:00:00
90,11815027,영광약국,서울특별시 금천구 시흥대로149길 7 (독산동),37.4758776,126.8973822,plenty,2020/05/16 09:14:00,2020/05/16 15:00:00
91,11826991,아이사랑약국,"서울특별시 금천구 시흥대로 214 401호 (시흥동, 비즈메드빌딩)",37.4530528,126.9016824,plenty,2020/05/16 12:50:00,2020/05/16 15:00:00
92,11816520,박애약국,서울특별시 금천구 시흥대로141길 66 (독산동),37.4757863,126.8978972,plenty,2020/05/16 09:07:00,2020/05/16 15:00:00
93,11872233,전진상약국,서울특별시 금천구 탑골로3가길 22 (시흥동),37.4525593,126.9106823,plenty,2020/05/15 08:58:00,2020/05/16 15:00:00
94,11893621,동아온누리약국,서울특별시 금천구 시흥대로 371 (독산동),37.4666974,126.8973075,plenty,2020/05/16 09:19:00,2020/05/16 15:00:00
95,11806079,벽산프라자약국,"서울특별시 금천구 금하로 763 213,214호 (시흥동, 벽산중심상가)",37.45037851,126.9145376,plenty,2020/05/11 09:00:00,2020/05/16 15:00:00
96,12814539,한울약국,서울특별시 금천구 독산로 133 1층 (시흥동),37.4591898,126.9048838,plenty,2020/05/16 09:54:00,2020/05/16 15:00:00
97,12809161,대한약국,서울특별시 금천구 금하로 711 (시흥동),37.4511323,126.90901,plenty,2020/05/15 11:23:00,2020/05/16 15:00:00
98,12808351,소망약국,서울특별시 금천구 독산로75길 16 (독산동),37.4690668,126.9015325,plenty,2020/05/16 10:09:00,2020/05/16 15:00:00
99,11894032,건강플러스약국,"서울특별시 금천구 시흥대로 391 3층 (독산동, 홈플러스금천점)",37.4686639,126.8968853,plenty,2020/05/16 12:02:00,2020/05/16 15:00:00
100,12870218,라임약국,서울특별시 금천구 디지털로9길 56 코오롱테크노밸리 109호 (가산동),37.4804028,126.8868682,plenty,2020/05/16 09:46:00,2020/05/16 15:00:00
101,11814390,대지약국,서울특별시 금천구 독산로 252 (독산동),37.4692431,126.9026443,plenty,2020/05/16 14:51:00,2020/05/16 15:00:00
102,11814381,새남부약국,서울특별시 금천구 남부순환로 1394 (독산동),37.4799477,126.9056571,plenty,2020/05/14 11:31:00,2020/05/16 15:00:00
103,12812404,남문프라자약국,서울특별시 금천구 시흥대로 436 (독산동),37.4726101,126.8986872,plenty,2020/05/16 09:34:00,2020/05/16 15:00:00
104,12810797,건강한약국,서울특별시 금천구 남부순환로 1384 (독산동),37.4797008,126.9044894,plenty,2020/05/16 09:04:00,2020/05/16 15:00:00
105,11899786,독산종로약국,서울특별시 금천구 독산로 360 (독산동),37.4788561,126.9040389,plenty,2020/05/16 08:44:00,2020/05/16 15:00:00
106,11898658,시흥프라자약국,서울특별시 금천구 독산로 135-1 (시흥동),37.4595066,126.9047827,plenty,2020/05/16 12:06:00,2020/05/16 15:00:00
107,12814563,에벤에셀온누리약국,"서울특별시 금천구 금하로 720 202호 (시흥동, 에벤에셀프라자)",37.4504269,126.9094777,plenty,2020/05/16 12:12:00,2020/05/16 15:00:00
108,11898062,중앙메디칼약국,"서울특별시 금천구 가산디지털1로 186 109-1호 (가산동, JEI플라츠)",37.4819131,126.8815811,plenty,2020/05/16 09:58:00,2020/05/16 15:00:00
109,11897619,녹십자약국,서울특별시 금천구 시흥대로 96 (시흥동),37.4426487,126.9040049,plenty,2020/05/16 11:29:00,2020/05/16 15:00:00
110,11815914,이화약국,서울특별시 금천구 독산로85길 7 (독산동),37.472335,126.9026742,some,2020/05/16 08:39:00,2020/05/16 15:00:00
111,11811111,한신코아약국,"서울특별시 금천구 한내로 62 1160호 (독산동, 한신아파트상가)",37.4558526,126.8897219,some,2020/05/16 08:47:00,2020/05/16 15:00:00
112,11813024,다보약국,서울특별시 금천구 시흥대로26길 9 (시흥동),37.4418631,126.9042902,some,2020/05/16 09:08:00,2020/05/16 15:00:00
113,12834491,미래팜약국,서울특별시 금천구 독산로 290 (독산동),37.4726344,126.9034067,some,2020/05/16 08:46:00,2020/05/16 15:00:00
114,12830631,신양온누리약국,서울특별시 금천구 시흥대로58길 38 (시흥동),37.4536679,126.9033667,some,2020/05/16 08:59:00,2020/05/16 15:00:00
115,12839531,성가약국,서울특별시 금천구 독산로106길 32 (독산동),37.4778675,126.9055899,some,2020/05/14 19:41:00,2020/05/16 15:00:00
116,12841048,광장온누리약국,서울특별시 금천구 금하로 710 (시흥동),37.450895,126.908704,some,2020/05/16 09:18:00,2020/05/16 15:00:00
117,12841731,미래온누리약국,서울특별시 금천구 시흥대로 415 (독산동),37.4706102,126.8976451,some,2020/04/20 10:05:00,2020/04/26 23:55:00
118,12852686,레아약국,"서울특별시 금천구 가산디지털1로 131 117-1호 (가산동, BYC하이시티)",37.4770829,126.8819822,some,2020/05/15 08:33:00,2020/05/16 15:00:00
119,12845086,정약국,서울특별시 금천구 두산로 81 (독산동),37.4699242,126.8970379,some,2020/05/16 09:12:00,2020/05/16 15:00:00
120,12829609,조은약국,서울특별시 금천구 시흥대로 421 1층 (독산동),37.4712845,126.8977443,some,2020/05/16 08:13:00,2020/05/16 15:00:00
121,12849383,참약국,서울특별시 금천구 남부순환로 1390 (독산동),37.4798411,126.9052183,some,2020/05/16 08:42:00,2020/05/16 15:00:00
122,11814225,명수약국,서울특별시 금천구 시흥대로138길 13 (독산동),37.4729245,126.8993347,,,
