,code,name,addr,latitude,longitude,remain_stat,stock_at,created_at
0,11840838,아임약국,"서울특별시 동작구 만양로 84 2층 208호 (노량진동, 삼익주상복합아파트)",37.5109209,126.9450362,break,2020/05/13 11:42:00,2020/05/16 15:00:00
1,12826081,이수약국,"서울특별시 동작구 동작대로29길 24 101호 (사당동, 정현빌딩)",37.4882228,126.9807015,break,2020/05/16 10:28:00,2020/05/16 15:00:00
2,12828971,우방약국,서울특별시 동작구 시흥대로 638 (신대방동),37.4888515,126.9067504,break,2020/05/15 12:50:00,2020/05/16 15:00:00
3,12829676,우리들온누리약국,"서울특별시 동작구 사당로 196 1층 (사당동, 거묵프리미엄상가)",37.4849594,126.9699257,break,2020/05/16 09:15:00,2020/05/16 15:00:00
4,11884533,은성약국,"서울특별시 동작구 노량진로8길 3 (노량진동, 경성빌딩)",37.5129272,126.9364938,break,2020/05/16 08:37:00,2020/05/16 15:00:00
5,11882590,용강약국,서울특별시 동작구 노량진로26길 13 (본동),37.5116621,126.9544238,break,2020/05/16 09:02:00,2020/05/16 15:00:00
6,11859237,보라매대학약국,"서울특별시 동작구 보라매로5길 23 101호 (신대방동, 삼성보라매옴니타워)",37.492706,126.923876,break,2020/05/16 08:45:00,2020/05/16 15:00:00
7,11855738,대방약국,"서울특별시 동작구 등용로 127 103동 203호 (대방동, 현대아파트상가)",37.5129359,126.9306714,break,2020/05/16 08:29:00,2020/05/16 15:00:00
8,12850691,보라매조은약국,"서울특별시 동작구 보라매로5길 23 지하 122호 (신대방동, 삼성보라매옴니타워)",37.492579,126.9236554,break,2020/05/16 08:43:00,2020/05/16 15:00:00
9,12852155,보라매온누리약국,서울특별시 동작구 보라매로 93 (신대방동),37.4977822,126.9277226,break,2020/05/16 09:13:00,2020/05/16 15:00:00
10,12852210,메디컬수약국,"서울특별시 동작구 서달로 150 207호, 208호 (흑석동, 해가든상가)",37.5066681,126.9622064,break,2020/05/16 09:49:00,2020/05/16 15:00:00
11,12859559,꿀약국,서울특별시 동작구 양녕로 186 1층 (상도동),37.4979031,126.9435934,break,2020/05/16 08:31:00,2020/05/16 15:00:00
12,11824522,동광약국,서울특별시 동작구 동작대로 129 (사당동),37.4882965,126.9818938,break,2020/05/16 09:15:00,2020/05/16 15:00:00
13,11824328,진원약국,서울특별시 동작구 노량진로6길 62 (노량진동),37.5103836,126.9360753,break,2020/05/16 14:07:00,2020/05/16 15:00:00
14,12861006,소망약국,"서울특별시 동작구 신대방1가길 38 105동 305, 306호 (신대방동, 동작상떼빌아파트)",37.4874945,126.9069458,break,2020/05/16 08:30:00,2020/05/16 15:00:00
15,12862568,엄마손약국,서울특별시 동작구 동작대로29길 69 201호 (사당동),37.4884377,126.9781018,break,2020/05/16 12:27:00,2020/05/16 15:00:00
16,12818291,시장약국,서울특별시 동작구 동작대로29길 17 (사당동),37.4879691,126.9809385,break,2020/05/16 09:58:00,2020/05/16 15:00:00
17,11804106,현대약국,서울특별시 동작구 장승배기로10길 47 (상도동),37.5044498,126.9415261,break,2020/05/16 09:28:00,2020/05/16 15:00:00
18,12869317,참사랑약국,"서울특별시 동작구 신대방1가길 38 105동 3층 309호 (신대방동, 동작상떼빌아파트)",37.4880046,126.9063433,break,2020/05/13 18:06:00,2020/05/16 15:00:00
19,12867756,바른약국,서울특별시 동작구 상도로 153 1층 (상도동),37.5034103,126.9362568,break,2020/05/16 12:16:00,2020/05/16 15:00:00
20,12848948,신세명약국,서울특별시 동작구 서달로 163 (흑석동),37.5078889,126.9623927,empty,2020/05/16 09:10:00,2020/05/16 15:00:00
21,12854581,주원약국,서울특별시 동작구 성대로39길 2 (상도동),37.500627,126.9413573,empty,2020/04/21 10:00:00,2020/04/26 23:55:00
22,11824824,평화약국,서울특별시 동작구 남부순환로 2059 1층 (사당동),37.4769192,126.9775136,empty,2020/05/16 10:30:00,2020/05/16 15:00:00
23,12858790,새싹약국,서울특별시 동작구 장승배기로 34 1층 101호 (상도동),37.5011562,126.9415797,empty,2020/05/16 09:02:00,2020/05/16 15:00:00
24,12853127,꿈꾸는약국,서울특별시 동작구 장승배기로 168 B001호 (노량진동),37.5126136,126.9405533,empty,2020/05/15 12:37:00,2020/05/16 15:00:00
25,12827541,조은약국,서울특별시 동작구 동작대로 43 (사당동),37.4804853,126.9814439,empty,2020/05/16 08:55:00,2020/05/16 15:00:00
26,12868183,신정약국,"서울특별시 동작구 사당로23바길 9 동작삼성래미안아파트 상가 202호 (사당동, 동작삼성래미안아파트)",37.489461,126.9701799,empty,2020/05/16 11:16:00,2020/05/16 15:00:00
27,12866431,보라매서울약국,서울특별시 동작구 보라매로5길 15 전문건설회관빌딩 지하1층 C-5호 (신대방동),37.4920979,126.9242544,empty,2020/05/16 08:29:00,2020/05/16 15:00:00
28,11825341,아름약국,서울특별시 동작구 서달로 110-1 (흑석동),37.5034061,126.9610366,empty,2020/03/09 08:14:00,2020/03/15 23:55:00
29,11823411,상아온누리약국,서울특별시 동작구 양녕로26길 22 (상도동),37.4976662,126.9439732,empty,2020/05/16 08:58:00,2020/05/16 15:00:00
30,12814351,옵티마다정약국,"서울특별시 동작구 동작대로29길 69 120,121호 (사당동)",37.4885263,126.9781125,empty,2020/05/16 08:17:00,2020/05/16 15:00:00
31,11824280,온누리송학대약국,서울특별시 동작구 장승배기로 119 (노량진동),37.5082692,126.9398854,empty,2020/05/16 09:07:00,2020/05/16 15:00:00
32,12835625,세계로약국,서울특별시 동작구 상도로 206 (상도동),37.5050091,126.9415017,few,2020/05/16 11:37:00,2020/05/16 15:00:00
33,12860395,유림온누리약국,"서울특별시 동작구 사당로 215 107호 (사당동, 서림빌딩)",37.4844856,126.9723704,few,2020/05/15 17:51:00,2020/05/16 15:00:00
34,11824191,유약국,서울특별시 동작구 상도로50길 2-13 (상도1동),37.4990725,126.9507486,few,2020/05/16 12:25:00,2020/05/16 15:00:00
35,11824131,에셀약국,"서울특별시 동작구 여의대방로 22 (신대방동, 우성A상가)",37.493644,126.910915,few,2020/05/16 08:37:00,2020/05/16 15:00:00
36,11823925,동의당약국,서울특별시 동작구 여의대방로10길 38 (신대방동),37.494605,126.913481,few,2020/05/15 15:00:00,2020/05/16 15:00:00
37,11823763,현명약국,"서울특별시 동작구 등용로 6 (상도동, 크라운플라자)",37.5048063,126.937603,few,2020/05/16 10:42:00,2020/05/16 15:00:00
38,12830518,하나약국,서울특별시 동작구 여의대방로24길 30 (신대방동),37.4978039,126.9218431,few,2020/05/16 09:00:00,2020/05/16 15:00:00
39,12826057,중앙프라자약국,서울특별시 동작구 상도로 178 (상도동),37.5042942,126.9387617,few,2020/05/16 11:31:00,2020/05/16 15:00:00
40,11888792,새비타민약국,서울특별시 동작구 성대로 52 (상도동),37.4984736,126.9337615,few,2020/05/16 10:40:00,2020/05/16 15:00:00
41,11823585,고은약국,서울특별시 동작구 사당로23길 185 (사당동),37.4903902,126.970723,few,2020/05/16 11:28:00,2020/05/16 15:00:00
42,12813729,다솜약국,서울특별시 동작구 상도로 82 (대방동),37.4994861,126.9297253,few,2020/05/16 09:17:00,2020/05/16 15:00:00
43,12830267,한라약국,서울특별시 동작구 사당로 301 사당동빌딩 3층 (사당동),37.4853103,126.9808096,no_data,no_data,2020/03/08 13:35:00
44,12830305,별약국,서울특별시 동작구 상도로 104 (상도동),37.5004476,126.9321692,plenty,2020/05/14 15:36:00,2020/05/16 15:00:00
45,12833916,오약국,서울특별시 동작구 동작대로29길 69 금강산보석불가마사우나 303호 (사당동),37.4884496,126.978131,plenty,2020/05/16 08:54:00,2020/05/16 15:00:00
46,12830852,안일약국,서울특별시 동작구 성대로 76 (상도동),37.4976884,126.9347311,plenty,2020/05/16 09:09:00,2020/05/16 15:00:00
47,12834441,오아시스약국,"서울특별시 동작구 양녕로 287 B301호 (상도동, 대우유로카운티)",37.5055632,126.9492308,plenty,2020/05/16 08:53:00,2020/05/16 15:00:00
48,12834670,이도약국,"서울특별시 동작구 만양로 112 1층 (노량진동, 서원빌딩)",37.5133345,126.9444201,plenty,2020/05/16 10:17:00,2020/05/16 15:00:00
49,12834700,상도온누리약국,서울특별시 동작구 상도로 297 (상도1동),37.5013485,126.9496044,plenty,2020/05/16 11:15:00,2020/05/16 15:00:00
50,12830925,팜프라자약국,서울특별시 동작구 남부순환로 2055 (사당동),37.4768791,126.9771081,plenty,2020/05/16 09:45:00,2020/05/16 15:00:00
51,12832685,골드약국,"서울특별시 동작구 동작대로 89 504호 (사당동, 골든시네마타워)",37.484648,126.9817,plenty,2020/05/16 12:52:00,2020/05/16 15:00:00
52,12827274,메디칼우리약국,서울특별시 동작구 보라매로 106 (신대방동),37.4987349,126.9283796,plenty,2020/05/16 09:41:00,2020/05/16 15:00:00
53,12829587,새천년약국,서울특별시 동작구 상도로 69 (대방동),37.4999695,126.9283927,plenty,2020/05/16 08:45:00,2020/05/16 15:00:00
54,12870064,노들약국,서울특별시 동작구 노량진로 166 (노량진동),37.5133527,126.9447794,plenty,2020/05/16 10:07:00,2020/05/16 15:00:00
55,12827614,사당프라자약국,"서울특별시 동작구 사당로 230-1 1층 (사당동, 미래빌딩)",37.4833168,126.9732579,plenty,2020/05/16 11:16:00,2020/05/16 15:00:00
56,12825476,상도프라자약국,"서울특별시 동작구 상도로 356 1층 (상도동, 교동빌딩)",37.4967544,126.9528446,plenty,2020/05/16 10:37:00,2020/05/16 15:00:00
57,12825018,건강온누리약국,서울특별시 동작구 상도로 202 (상도동),37.5049678,126.9410691,plenty,2020/05/16 08:53:00,2020/05/16 15:00:00
58,12824615,밝은미소약국,서울특별시 동작구 사당로 215 108호 (사당동),37.484381,126.972309,plenty,2020/05/16 08:55:00,2020/05/16 15:00:00
59,12824267,메디홈약국,"서울특별시 동작구 상도로 174 (상도동, 동서남북빌딩)",37.504266,126.9384205,plenty,2020/05/16 08:18:00,2020/05/16 15:00:00
60,12823694,건강과행복이열리는중앙메디칼약국,서울특별시 동작구 흑석로 106-5 1층 (흑석동),37.5078976,126.9614485,plenty,2020/05/15 12:40:00,2020/05/16 15:00:00
61,12822124,아카데미약국,"서울특별시 동작구 보라매로5가길 16 515호 (신대방동, 아카데미타워)",37.4913263,126.924075,plenty,2020/05/16 08:55:00,2020/05/16 15:00:00
62,12821411,메디칼수정약국,"서울특별시 동작구 보라매로 113 105호 (대방동, 코스모빌딩)",37.4994798,126.9279165,plenty,2020/05/16 09:10:00,2020/05/16 15:00:00
63,12819212,김약국,서울특별시 동작구 노량진로 162 . 1층 (노량진동),37.5134041,126.9439606,plenty,2020/05/16 10:13:00,2020/05/16 15:00:00
64,12870013,설약국,서울특별시 동작구 노량진로 124 1층 (노량진동),37.5132749,126.9396363,plenty,2020/05/16 14:29:00,2020/05/16 15:00:00
65,12837083,파랑새약국,서울특별시 동작구 상도로 81 지하1층 (대방동),37.499959,126.9295669,plenty,2020/05/16 13:33:00,2020/05/16 15:00:00
66,12864412,희경약국,서울특별시 동작구 상도로 99 1층 (상도동),37.5003757,126.9314082,plenty,2020/05/16 13:45:00,2020/05/16 15:00:00
67,12839396,천사온누리약국,서울특별시 동작구 서달로 146 (흑석동),37.5063435,126.961514,plenty,2020/05/16 08:31:00,2020/05/16 15:00:00
68,12864188,메디팜엔비약국,서울특별시 동작구 노량진로 152 . 1층 (노량진동),37.5134495,126.9427661,plenty,2020/05/16 08:59:00,2020/05/16 15:00:00
69,12866172,숭실길약국,서울특별시 동작구 상도로67길 31 1층 (상도동),37.495015,126.9564293,plenty,2020/05/16 10:51:00,2020/05/16 15:00:00
70,12862126,단골약국,서울특별시 동작구 보라매로 61-1 (신대방동),37.4949921,126.9271457,plenty,2020/05/16 10:31:00,2020/05/16 15:00:00
71,12861723,친절한약국,서울특별시 동작구 사당로 224 1층 (사당동),37.4837087,126.9725656,plenty,2020/05/14 09:22:00,2020/05/16 15:00:00
72,12860948,해태사랑약국,"서울특별시 동작구 보라매로3길 29 3층 306호 (신대방동, 해태보라매타워)",37.4912113,126.9249903,plenty,2020/05/16 09:57:00,2020/05/16 15:00:00
73,12860182,행복한오늘이수약국,"서울특별시 동작구 사당로 308 (사당동, 화인빌딩)",37.4849196,126.9815815,plenty,2020/05/16 08:28:00,2020/05/16 15:00:00
74,12866628,햇살온누리약국,서울특별시 동작구 상도로 345 1층 (상도동),37.4978615,126.9526795,plenty,2020/05/16 08:56:00,2020/05/16 15:00:00
75,12859575,라임약국,서울특별시 동작구 여의대방로 142 (대방동),37.49968,126.920671,plenty,2020/05/16 11:03:00,2020/05/16 15:00:00
76,12866695,유원약국,서울특별시 동작구 상도로 377 1층 (상도동),37.4953293,126.9548281,plenty,2020/04/29 14:49:00,2020/05/03 23:55:00
77,12858081,우정약국,서울특별시 동작구 서달로 144 (흑석동),37.5062644,126.9613428,plenty,2020/05/16 11:38:00,2020/05/16 15:00:00
78,12856878,다은약국,서울특별시 동작구 장승배기로20길 2 (노량진동),37.5081782,126.940409,plenty,2020/05/16 09:53:00,2020/05/16 15:00:00
79,12854336,정다운약국,"서울특별시 동작구 만양로 19 상가동 3층 311,312호 (노량진동, 신동아리버파크아파트)",37.5077974,126.9447636,plenty,2020/05/16 11:01:00,2020/05/16 15:00:00
80,12866873,경희서림한약국,서울특별시 동작구 상도로15길 98 1층 (상도동),37.5042759,126.9361764,plenty,2020/05/16 10:16:00,2020/05/16 15:00:00
81,12850942,건강약국,서울특별시 동작구 만양로 5 (상도동),37.5053897,126.9465524,plenty,2020/05/16 08:42:00,2020/05/16 15:00:00
82,12849375,신중앙약국,서울특별시 동작구 흑석로 103 (흑석동),37.5078639,126.9608428,plenty,2020/05/16 12:35:00,2020/05/16 15:00:00
83,12818518,사랑약국,서울특별시 동작구 사당로 303 (사당동),37.4854183,126.9811511,plenty,2020/05/15 11:11:00,2020/05/16 15:00:00
84,12868418,해뜨는약국,"서울특별시 동작구 양녕로 281 (상도동, 상도빌딩)",37.5045849,126.9494781,plenty,2020/05/16 08:33:00,2020/05/16 15:00:00
85,12868841,광주약국,서울특별시 동작구 동작대로 127 1층 (사당동),37.4879721,126.9819529,plenty,2020/05/15 16:07:00,2020/05/16 15:00:00
86,12849243,더블유약국,서울특별시 동작구 양녕로 264 (상도1동),37.5033042,126.9485894,plenty,2020/05/16 09:41:00,2020/05/16 15:00:00
87,12849138,우리온누리약국,"서울특별시 동작구 흑석한강로 27 B106호 (흑석동, 흑석한강푸르지오)",37.503001,126.9653721,plenty,2020/05/16 08:55:00,2020/05/16 15:00:00
88,12846872,큰사랑약국,서울특별시 동작구 상도로 346 (상도동),37.4976204,126.9520772,plenty,2020/05/16 09:30:00,2020/05/16 15:00:00
89,12846104,스마일약국,서울특별시 동작구 장승배기로 110-1 (노량진동),37.5074398,126.9401825,plenty,2020/05/15 11:05:00,2020/05/16 15:00:00
90,12864935,예쁜약국,서울특별시 동작구 서달로 166 2층 (흑석동),37.5077685,126.9628895,plenty,2020/05/15 18:15:00,2020/05/16 15:00:00
91,12845230,태평양약국,"서울특별시 동작구 사당로 227 1층 (사당동, 태평약국)",37.4837804,126.9732233,plenty,2020/05/16 10:42:00,2020/05/16 15:00:00
92,12845051,솔약국,서울특별시 동작구 동작대로17길 3 (사당동),37.4826983,126.9813406,plenty,2020/05/16 10:02:00,2020/05/16 15:00:00
93,12843393,맑은샘약국,서울특별시 동작구 장승배기로 110 (노량진동),37.5073526,126.9401654,plenty,2020/05/15 11:11:00,2020/05/16 15:00:00
94,12842524,라파약국,서울특별시 동작구 상도로 348 평강빌딩 1층 (상도동),37.4972375,126.9524159,plenty,2020/05/16 09:56:00,2020/05/16 15:00:00
95,12840947,성모약국,서울특별시 동작구 상도로 247 1층 (상도동),37.5050343,126.9462733,plenty,2020/05/16 10:18:00,2020/05/16 15:00:00
96,12869635,바름약국,서울특별시 동작구 흑석로 101 1층 (흑석동),37.5077563,126.9605974,plenty,2020/05/16 12:11:00,2020/05/16 15:00:00
97,12838926,중앙명성약국,서울특별시 동작구 흑석로 106-7 (흑석동),37.5078273,126.9615167,plenty,2020/05/15 12:19:00,2020/05/16 15:00:00
98,12845485,흑석유약국,"서울특별시 동작구 현충로10길 88-6 110호 (흑석동, 흑석한강센트레빌상가)",37.5041582,126.9693542,plenty,2020/05/16 09:08:00,2020/05/16 15:00:00
99,11800356,대림온누리약국,서울특별시 동작구 시흥대로 662 (신대방동),37.4906353,126.9082173,plenty,2020/05/16 08:20:00,2020/05/16 15:00:00
100,11867256,수산약국,서울특별시 동작구 노들로 674 노량진수산물도매시장 2층 (노량진동),37.5148693,126.9368431,plenty,2020/05/16 13:48:00,2020/05/16 15:00:00
101,11824310,신안약국,서울특별시 동작구 장승배기로 139-1 (노량진동),37.510076,126.9399824,plenty,2020/05/16 08:01:00,2020/05/16 15:00:00
102,11824344,화생약국,서울특별시 동작구 노량진로6길 26 1층 (노량진동),37.5119509,126.9356247,plenty,2020/05/15 10:39:00,2020/05/16 15:00:00
103,11824468,세브란스약국,서울특별시 동작구 동작대로25길 39 (사당동),37.4854002,126.9804039,plenty,2020/05/16 10:18:00,2020/05/16 15:00:00
104,11824620,교약국,"서울특별시 동작구 상도로 407-5 (상도동, 삼호아파트 상가 109호)",37.4934323,126.9569997,plenty,2020/05/16 10:24:00,2020/05/16 15:00:00
105,11824654,대일약국,서울특별시 동작구 동작대로27길 22 (사당동),37.4877046,126.980672,plenty,2020/05/16 13:07:00,2020/05/16 15:00:00
106,11824671,화천약국,서울특별시 동작구 동작대로25길 6 (사당동),37.4865235,126.9815937,plenty,2020/05/16 11:27:00,2020/05/16 15:00:00
107,11824883,온누리세종약국,서울특별시 동작구 동작대로7길 84 (사당동),37.4777602,126.9781039,plenty,2020/05/16 11:22:00,2020/05/16 15:00:00
108,11824212,신성약국,서울특별시 동작구 상도로 331 (상도동),37.498828,126.9518222,plenty,2020/05/16 14:49:00,2020/05/16 15:00:00
109,11825014,금영약국,"서울특별시 동작구 장승배기로 76 1층 (상도동, 대경빌딩)",37.5044126,126.9394404,plenty,2020/05/15 08:55:00,2020/05/16 15:00:00
110,11825154,복지약국,서울특별시 동작구 사당로 194 (사당동),37.4851098,126.9696476,plenty,2020/05/16 09:03:00,2020/05/16 15:00:00
111,11825383,아담약국,서울특별시 동작구 현충로 114-1 (흑석동),37.5069774,126.9662357,plenty,2020/05/16 09:30:00,2020/05/16 15:00:00
112,11825413,상산약국,서울특별시 동작구 서달로 136-1 (흑석동),37.5056307,126.961175,plenty,2020/05/16 08:43:00,2020/05/16 15:00:00
113,11825430,명수대약국,서울특별시 동작구 서달로 151 (흑석동),37.5069677,126.9615338,plenty,2020/05/16 08:30:00,2020/05/16 15:00:00
114,11832860,팜팜약국,"서울특별시 동작구 여의대방로 250 104호 (대방동, 대림쇼핑)",37.508847,126.924497,plenty,2020/05/16 08:45:00,2020/05/16 15:00:00
115,11835150,보생당약국,"서울특별시 동작구 서달로 150 108호 (흑석동, 이랜드해가든)",37.50681493,126.9619475,plenty,2020/05/16 08:47:00,2020/05/16 15:00:00
116,11865482,제일약국,서울특별시 동작구 여의대방로36길 5 (대방동),37.5041841,126.9225488,plenty,2020/05/16 09:11:00,2020/05/16 15:00:00
117,11825073,은미약국,서울특별시 동작구 사당로16길 22 (사당동),37.4825939,126.9731051,plenty,2020/05/16 10:08:00,2020/05/16 15:00:00
118,11868198,해태보라매약국,"서울특별시 동작구 보라매로3길 29 (신대방동,해태보라매타워상가동 1층 28호)",37.4913679,126.9248875,plenty,2020/05/16 09:35:00,2020/05/16 15:00:00
119,11823909,윤당약국,서울특별시 동작구 시흥대로 644 (신대방동),37.489173,126.9070504,plenty,2020/05/16 10:26:00,2020/05/16 15:00:00
120,11823721,성대약국,서울특별시 동작구 성대로 11 (상도동),37.500036,126.932583,plenty,2020/05/16 09:11:00,2020/05/16 15:00:00
121,11804408,대영약국,"서울특별시 동작구 만양로 26 215호 (상도동, 건영아파트상가)",37.5077626,126.9499848,plenty,2020/05/16 10:37:00,2020/05/16 15:00:00
122,11809680,대우당약국,서울특별시 동작구 상도로 102 (상도동),37.4999427,126.9317763,plenty,2020/05/16 09:44:00,2020/05/16 15:00:00
123,11809710,허브약국,서울특별시 관악구 남부순환로 1471 1층 (신림동),37.4821095,126.9142699,plenty,2020/05/16 12:19:00,2020/05/16 15:00:00
124,11810955,윤경약국,서울특별시 동작구 상도로 65 (대방동),37.4999844,126.9279174,plenty,2020/05/16 10:47:00,2020/05/16 15:00:00
125,11811897,신대방수연약국,서울특별시 동작구 신대방2길 1 (신대방동),37.4878035,126.9126258,plenty,2020/05/15 10:26:00,2020/05/16 15:00:00
126,11812036,은하온누리약국,"서울특별시 동작구 사당로2가길 102 119호 (사당동, 사당자이아파트 상가)",37.4890499,126.9626169,plenty,2020/05/16 10:07:00,2020/05/16 15:00:00
127,11813016,지성약국,서울특별시 동작구 양녕로 189 (상도동),37.4982163,126.9434564,plenty,2020/05/16 11:54:00,2020/05/16 15:00:00
128,11823755,효성약국,"서울특별시 동작구 상도로 181 (상도동, 효성약국)",37.5049629,126.938837,plenty,2020/05/15 09:08:00,2020/05/16 15:00:00
129,11816678,새미약국,서울특별시 동작구 동작대로 25 4층 (사당동),37.47875,126.9813575,plenty,2020/05/15 12:39:00,2020/05/16 15:00:00
130,11823259,가족건강약국,"서울특별시 동작구 등용로 115 101호 (대방동, 엘리시아빌딩)",37.5114623,126.9317563,plenty,2020/05/16 11:44:00,2020/05/16 15:00:00
131,11823330,중앙약국,서울특별시 동작구 양녕로 195 (상도동),37.4987877,126.943698,plenty,2020/05/16 09:17:00,2020/05/16 15:00:00
132,11823348,대남약국,서울특별시 동작구 상도로22길 26 (상도동),37.5021397,126.936939,plenty,2020/05/16 10:43:00,2020/05/16 15:00:00
133,11823542,소화약국,서울특별시 동작구 여의대방로24나길 2 (대방동),37.4984317,126.9210372,plenty,2020/05/16 14:43:00,2020/05/16 15:00:00
134,11823569,부산약국,서울특별시 동작구 성대로 68 (상도동),37.4979204,126.9343224,plenty,2020/05/16 11:32:00,2020/05/16 15:00:00
135,11823577,계령약국,"서울특별시 동작구 성대로 32 (상도동, 계령약국)",37.4991782,126.9330463,plenty,2020/05/16 09:44:00,2020/05/16 15:00:00
136,11823593,제당약국,서울특별시 동작구 국사봉길 97 (상도동),37.4958491,126.931758,plenty,2020/05/16 11:17:00,2020/05/16 15:00:00
137,11823186,성약국,서울특별시 동작구 상도로15길 143 (상도동),37.505113,126.9387861,plenty,2020/05/16 07:43:00,2020/05/16 15:00:00
138,11870150,해가든약국,"서울특별시 동작구 서달로 150 202호 (흑석동, 해가든상가)",37.50662654,126.9621838,plenty,2020/05/13 08:08:00,2020/05/16 15:00:00
139,12870501,2층은약국,서울특별시 동작구 현충로 75 원불교100년기념관 (흑석동),37.5097591,126.9638593,plenty,2020/05/14 13:13:00,2020/05/16 15:00:00
140,11898615,새중앙약국,서울특별시 동작구 노량진로 110 113호 (노량진동),37.5132094,126.9380558,plenty,2020/05/16 09:29:00,2020/05/16 15:00:00
141,12804843,금강약국,"서울특별시 동작구 매봉로 178 B02호 (본동, 마본빌딩)",37.5122101,126.9521826,plenty,2020/05/16 11:33:00,2020/05/16 15:00:00
142,12803600,엄마랑약국,서울특별시 동작구 장승배기로 107 1층 2호 (노량진동),37.5072396,126.9397198,plenty,2020/05/15 20:13:00,2020/05/16 15:00:00
143,12803197,인화약국,"서울특별시 동작구 만양로 84 102,103호 (노량진동, 삼익주상복합상가)",37.510886,126.944711,plenty,2020/05/15 09:20:00,2020/05/16 15:00:00
144,12805386,파란약국,서울특별시 동작구 남부순환로 2057 3층 (사당동),37.4769407,126.9773807,plenty,2020/05/15 12:44:00,2020/05/16 15:00:00
145,12807435,약수태평양약국,서울특별시 동작구 장승배기로 7 (상도동),37.499329,126.9434217,plenty,2020/05/15 10:22:00,2020/05/16 15:00:00
146,11899344,신대방약국,서울특별시 동작구 상도로 77 (대방동),37.4999073,126.9292454,plenty,2020/05/16 09:28:00,2020/05/16 15:00:00
147,11870435,수온누리약국,서울특별시 동작구 동작대로 65 1층 (사당동),37.4823778,126.9815964,plenty,2020/05/16 09:57:00,2020/05/16 15:00:00
148,11897007,옵티마상도약국,"서울특별시 동작구 상도로53길 6 1층 (상도동, 순현빌딩)",37.4977708,126.9533125,plenty,2020/05/16 10:33:00,2020/05/16 15:00:00
149,11896469,강림약국,서울특별시 동작구 시흥대로 668-2 (신대방동),37.4910601,126.9085604,plenty,2020/05/16 12:34:00,2020/05/16 15:00:00
150,11894865,우리약국,서울특별시 동작구 노량진로 155 (노량진동),37.5139397,126.9432093,plenty,2020/05/16 10:56:00,2020/05/16 15:00:00
151,11894725,찬솔약국,서울특별시 동작구 만양로 86 (노량진동),37.5112054,126.9446159,plenty,2020/05/16 08:10:00,2020/05/16 15:00:00
152,11894539,새종로약국,"서울특별시 동작구 성대로 5 (상도동, 새종로약국)",37.5002493,126.9323342,plenty,2020/05/16 09:10:00,2020/05/16 15:00:00
153,12807478,한빛평화약국,서울특별시 동작구 시흥대로 664 (신대방동),37.4907024,126.90844,plenty,2020/05/16 10:11:00,2020/05/16 15:00:00
154,12803987,이화약국,서울특별시 동작구 양녕로38길 2 (상도1동),37.5049166,126.9506927,plenty,2020/05/16 09:39:00,2020/05/16 15:00:00
155,12807541,정성약국,"서울특별시 동작구 여의대방로 250 2층 201호 (대방동, 대림상가)",37.5087417,126.92485,plenty,2020/05/16 09:05:00,2020/05/16 15:00:00
156,11885882,보건약국,서울특별시 동작구 장승배기로10길 43 (상도동),37.5046598,126.9413389,plenty,2020/05/14 13:14:00,2020/05/16 15:00:00
157,11884819,예하약국,서울특별시 동작구 성대로 24 (상도동),37.4995109,126.9327079,plenty,2020/05/14 09:22:00,2020/05/16 15:00:00
158,12809071,상도시장약국,서울특별시 동작구 상도로22길 46 (상도동),37.5014093,126.937082,plenty,2020/05/15 18:15:00,2020/05/16 15:00:00
159,11883618,정성을다하는약국,서울특별시 동작구 성대로29길 68 (상도동),37.5011636,126.9374621,plenty,2020/05/16 10:52:00,2020/05/16 15:00:00
160,12809721,사당소화약국,서울특별시 동작구 동작대로 7 1층 (사당동),37.4771747,126.9811278,plenty,2020/05/16 10:03:00,2020/05/16 15:00:00
161,12813664,조이온누리약국,"서울특별시 동작구 동작대로 121 지하1층 (사당동, 경원빌딩)",37.4874684,126.9818694,plenty,2020/05/16 09:09:00,2020/05/16 15:00:00
162,11874538,노량진종로약국,서울특별시 동작구 노량진로 234 (본동),37.5124825,126.9519369,plenty,2020/05/16 08:54:00,2020/05/16 15:00:00
163,12870447,민들레약국,서울특별시 동작구 보라매로 110 영등포농협 1층 (대방동),37.4990895,126.9284473,plenty,2020/05/16 14:31:00,2020/05/16 15:00:00
164,11871211,세메론약국,"서울특별시 동작구 여의대방로44길 47 (대방동, 주공상가 101호)",37.5108249,126.9300624,plenty,2020/05/16 10:04:00,2020/05/16 15:00:00
165,12815497,대광약국,서울특별시 동작구 상도로45길 6 (상도1동),37.500277,126.9508391,plenty,2020/05/15 11:16:00,2020/05/16 15:00:00
166,12816566,전원약국,"서울특별시 동작구 사당로 244 1호 (사당동, 사당시장 점포)",37.4830336,126.9748808,plenty,2020/05/15 11:27:00,2020/05/16 15:00:00
167,11886731,씨에이(CA)정문약국,서울특별시 동작구 흑석로 108 1~2층 (흑석동),37.5080534,126.961354,plenty,2020/05/16 13:58:00,2020/05/16 15:00:00
168,12804754,신세계약국,서울특별시 동작구 사당로 297 (사당동),37.4851381,126.9805261,plenty,2020/05/14 12:03:00,2020/05/16 15:00:00
169,12825239,고은온누리약국,서울특별시 동작구 여의대방로36길 1 (대방동),37.5042286,126.9223915,some,2020/05/16 09:06:00,2020/05/16 15:00:00
170,12809934,이수사랑약국,"서울특별시 동작구 사당로 300 222호 (사당동, 이수자이)",37.4843925,126.9805813,some,2020/05/16 09:57:00,2020/05/16 15:00:00
171,11870923,열린약국,"서울특별시 동작구 보라매로5길 23 지하1층 B117호 (신대방동, 삼성보라매옴니타워)",37.492579,126.9236554,some,2020/05/14 13:25:00,2020/05/16 15:00:00
172,12861910,유정온누리약국,서울특별시 동작구 여의대방로22나길 1 1층 (신대방동),37.4975038,126.9208075,some,2020/05/16 10:30:00,2020/05/16 15:00:00
173,12800821,제중당건강약국,"서울특별시 동작구 동작대로 89 107,108,S-12,S-13호 (사당동, 골든시네마타워)",37.4847428,126.9814908,some,2020/05/15 11:34:00,2020/05/16 15:00:00
174,11888334,늘사랑약국,서울특별시 동작구 상도로 91 (상도동),37.5000475,126.9307122,some,2020/05/15 18:29:00,2020/05/16 15:00:00
175,12857173,중문약국,서울특별시 동작구 흑석로 106-9 2층 (흑석동),37.5077317,126.9615644,some,2020/05/13 17:55:00,2020/05/16 15:00:00
176,12853844,행복이열리는건강약국,서울특별시 동작구 상도로 301 (상도1동),37.5009751,126.9499745,some,2020/05/16 10:41:00,2020/05/16 15:00:00
177,12853623,우성당약국,서울특별시 동작구 여의대방로 22 104호 (신대방동),37.493549,126.910859,some,2020/05/15 14:15:00,2020/05/16 15:00:00
178,12842311,샬롬약국,서울특별시 동작구 성대로2길 12 (상도동),37.4994503,126.931252,some,2020/05/15 09:38:00,2020/05/16 15:00:00
179,11879891,대학약국,서울특별시 동작구 흑석로 106 (흑석동),37.5079857,126.9613786,some,2020/05/16 08:24:00,2020/05/16 15:00:00
180,11878061,새보라매약국,"서울특별시 동작구 보라매로5길 5 101호 (신대방동, 보라매우성상가)",37.4924013,126.925275,some,2020/05/16 10:02:00,2020/05/16 15:00:00
181,11840633,유성약국,서울특별시 동작구 등용로14길 65 (노량진동),37.5125202,126.9351456,some,2020/05/16 10:12:00,2020/05/16 15:00:00
182,12817538,금성약국,서울특별시 동작구 사당로16길 68 지하1층 (사당동),37.4807708,126.9717651,some,2020/05/16 12:02:00,2020/05/16 15:00:00
183,12849120,바다의별약국,서울특별시 동작구 상도로 172 (상도동),37.5041602,126.938227,some,2020/05/13 17:28:00,2020/05/16 15:00:00
184,12803651,푸른약국,서울특별시 동작구 상도로 93 (상도동),37.50012,126.9308466,some,2020/05/16 09:10:00,2020/05/16 15:00:00
185,12816809,강약국,"서울특별시 동작구 서달로 158 (흑석동, 명수대상가104호)",37.5074679,126.9622122,some,2020/05/15 11:20:00,2020/05/16 15:00:00
186,11823658,이정원약국,서울특별시 동작구 국사봉길 90 (상도동),37.4959354,126.9311835,,,
187,11824646,명인약국,서울특별시 동작구 여의대방로 126 (신대방동),37.4981877,126.9205768,,,
188,11885769,행복드림약국,서울특별시 동작구 노량진로 90 (노량진동),37.5130592,126.935732,,,
189,12826031,밝은세상하나약국,서울특별시 동작구 사당로 236 (사당동),37.4831712,126.9738228,,,
190,12859842,서보약국,서울특별시 동작구 서달로8길 4 (흑석동),37.5061384,126.9613126,,,
191,12863181,동의보감 한약국,서울특별시 동작구 사당로22길 3 602호 (사당동),37.4833374,126.9768015,,,
