,code,name,addr,latitude,longitude,remain_stat,stock_at,created_at
0,12852554,양재팜24약국,서울특별시 서초구 남부순환로350길 36 1층 (양재동),37.4833001,127.0362334,break,2020/05/16 09:17:00,2020/05/16 15:00:00
1,12861405,나무약국,서울특별시 서초구 명달로 106 원영빌딩 1층 (서초동),37.4866165,127.0044612,break,2020/05/16 08:56:00,2020/05/16 15:00:00
2,12858064,모아약국,"서울특별시 서초구 성촌길 34 지하1층 (우면동, (주)삼성전자서울R&D캠퍼스)",37.4661983,127.0242881,break,2020/05/15 14:08:00,2020/05/16 15:00:00
3,11856220,세계로약국,서울특별시 서초구 동작대로 38 (방배동),37.479828,126.9822163,break,2020/05/16 10:26:00,2020/05/16 15:00:00
4,11856254,메디팜은강약국,"서울특별시 서초구 잠원로14길 29 104호 (잠원동, 설악복지센타)",37.5178526,127.0154234,break,2020/05/16 11:06:00,2020/05/16 15:00:00
5,12855685,경희정산한약국,서울특별시 서초구 방배로 57 1층 (방배동),37.4797056,126.9984853,break,2020/04/30 11:59:00,2020/05/03 23:55:00
6,11872209,수약국,"서울특별시 서초구 동작대로 134 5층 (방배동, 가나안빌딩)",37.4886136,126.9827975,break,2020/05/16 10:20:00,2020/05/16 15:00:00
7,12853372,신청사구내약국,"서울특별시 서초구 반포대로 217 지하1층 (반포동, 조달청사별관동)",37.4994114,127.0033334,break,2020/05/16 12:25:00,2020/05/16 15:00:00
8,11879751,행복을여는서래약국,서울특별시 서초구 서래로5길 3 (반포동),37.4977269,126.9981356,break,2020/05/16 09:52:00,2020/05/16 15:00:00
9,12851434,초록약국,"서울특별시 서초구 바우뫼로7길 8 501호 (우면동, 세신상가)",37.4708599,127.0253951,break,2020/05/16 09:10:00,2020/05/16 15:00:00
10,12849634,세화약국,"서울특별시 서초구 신반포로 100 406호 (반포동, 래미안퍼스티지신반포역상가)",37.5030323,126.9955162,break,2020/05/16 09:03:00,2020/05/16 15:00:00
11,11896043,메디케어약국,"서울특별시 서초구 신반포로 157 405호 (잠원동, 일동빌딩)",37.5055124,127.0014772,break,2020/05/16 10:38:00,2020/05/16 15:00:00
12,12848131,에이티약국,"서울특별시 서초구 강남대로 27 지하1층 (양재동, AT센터)",37.4682596,127.0389985,break,2020/05/15 09:30:00,2020/05/16 15:00:00
13,12805327,스마일약국,"서울특별시 서초구 동작대로 132 지하2층 (방배동, 안석빌딩)",37.4882676,126.9827781,break,2020/05/15 13:46:00,2020/05/16 15:00:00
14,12807516,영동프라자약국,서울특별시 서초구 강남대로 521-4 (반포동),37.5085362,127.0222069,break,2020/05/16 12:03:00,2020/05/16 15:00:00
15,12808733,내방약국,"서울특별시 서초구 방배로 125 2층 2호 (방배동, 영신빌딩)",37.4850956,126.9949469,break,2020/05/16 08:46:00,2020/05/16 15:00:00
16,12839507,늘기쁜약국,서울특별시 서초구 효령로 200 1층 (서초동),37.4828508,127.0061556,break,2020/05/15 12:59:00,2020/05/16 15:00:00
17,12839302,서초미소약국,서울특별시 서초구 서초중앙로 230 408호 (반포동),37.5021689,127.0120781,break,2020/05/16 09:07:00,2020/05/16 15:00:00
18,12839167,서초온누리약국,"서울특별시 서초구 서초대로 310 지하1층 (서초동, 소망빌딩)",37.4939941,127.0155606,break,2020/05/16 09:09:00,2020/05/16 15:00:00
19,12817589,임마누엘온누리약국,서울특별시 서초구 방배로 244 1층 (방배동),37.4948851,126.9894965,break,2020/05/16 09:36:00,2020/05/16 15:00:00
20,12818259,은혜약국,서울특별시 서초구 신반포로 41 1층 (반포동),37.501925,126.98885,break,2020/05/16 10:23:00,2020/05/16 15:00:00
21,12836541,다사랑약국,"서울특별시 서초구 서초대로74길 11 지하2층 (서초동, 삼성전자빌딩)",37.4966324,127.0269076,break,2020/05/16 09:07:00,2020/05/16 15:00:00
22,12836273,플러스엔약국,"서울특별시 서초구 강남대로53길 7 102호 (서초동, 애니타워)",37.4943208,127.0282322,break,2020/05/16 11:04:00,2020/05/16 15:00:00
23,12829820,위드팜수약국,"서울특별시 서초구 사평대로 205 4,5층 BP4-1A호 (반포동, CENTRALCITY반포천 복개주차장)",37.5031529,127.0043696,break,2020/05/15 17:50:00,2020/05/16 15:00:00
24,12861413,진흥온누리약국,"서울특별시 서초구 서초대로 389 1층 105,106호 (서초동, 진흥상가)",37.4970821,127.0237071,break,2020/05/15 11:21:00,2020/05/16 15:00:00
25,11854634,신오약국,서울특별시 서초구 강남대로61길 7 1층 (서초동),37.4990456,127.0259655,break,2020/05/16 09:34:00,2020/05/16 15:00:00
26,12831905,모닝온누리약국,"서울특별시 서초구 강남대로 341 지하1층 (서초동, 삼원빌딩)",37.4932705,127.0293874,break,2020/05/16 10:20:00,2020/05/16 15:00:00
27,12863424,라임약국,서울특별시 서초구 서초중앙로 229 1층 (반포동),37.5021206,127.0113916,break,2020/05/16 11:47:00,2020/05/16 15:00:00
28,11810459,고명약국,"서울특별시 서초구 바우뫼로 23 101,102호 (우면동, 선일상가)",37.4704214,127.0252675,break,2020/05/16 09:06:00,2020/05/16 15:00:00
29,11823283,서광약국,서울특별시 서초구 남부순환로315길 104 (서초동),37.4831118,127.0075409,break,2020/05/16 08:52:00,2020/05/16 15:00:00
30,12850047,기쁨약국,서울특별시 서초구 효령로 396 1층 (서초동),37.4879042,127.0272409,empty,2020/05/15 09:11:00,2020/05/16 15:00:00
31,11867558,현약국,서울특별시 서초구 서초대로 304 6층 (서초동),37.4938049,127.0149613,empty,2020/03/14 09:59:00,2020/03/15 23:55:00
32,12854239,한성약국,"서울특별시 서초구 신반포로 257 지하1층 (잠원동, 뉴타운)",37.5086203,127.011936,empty,2020/05/16 08:25:00,2020/05/16 15:00:00
33,11848413,행복약국,"서울특별시 서초구 사임당로 151 145,146호 (서초동, 무지개쇼핑)",37.4920742,127.0257084,empty,2020/05/16 09:08:00,2020/05/16 15:00:00
34,11886269,버클리약국,"서울특별시 서초구 신반포로15길 29 2층 (반포동, 신반포상가)",37.5054719,126.9947131,empty,2020/05/16 08:49:00,2020/05/16 15:00:00
35,11893923,양재프라자약국,"서울특별시 서초구 강남대로 224 1층 104호 (양재동, 한신휴플러스)",37.4840275,127.0351327,empty,2020/05/16 09:27:00,2020/05/16 15:00:00
36,12848395,다솜약국,서울특별시 서초구 신반포로 41 K동 12호 (반포동),37.501993,126.989231,empty,2020/05/16 09:03:00,2020/05/16 15:00:00
37,12846627,교대사랑약국,"서울특별시 서초구 서초대로 335 (서초동, 서흥빌딩)",37.4952553,127.0180081,empty,2020/05/16 08:19:00,2020/05/16 15:00:00
38,12846538,녹십자약국,서울특별시 서초구 방배로25길 4 1층 (방배동),37.4888558,126.9925653,empty,2020/05/16 08:53:00,2020/05/16 15:00:00
39,12843865,위드팜솔약국,서울특별시 서초구 사평대로 205 (반포동),37.5030801,127.004145,empty,2020/05/16 08:26:00,2020/05/16 15:00:00
40,12814695,푸른온누리약국,"서울특별시 서초구 바우뫼로35길 28 1층 (양재동, 고원빌딩)",37.4797458,127.0388381,empty,2020/05/16 11:52:00,2020/05/16 15:00:00
41,12837962,양재시민의숲수약국,서울특별시 서초구 마방로2길 57 101호 (양재동),37.4710797,127.0394792,empty,2020/05/16 08:50:00,2020/05/16 15:00:00
42,11803126,소화약국,서울특별시 서초구 방배로 87 1층 1호 (방배동),37.4821718,126.9969232,empty,2020/05/16 08:46:00,2020/05/16 15:00:00
43,12824780,에이스온누리약국,서울특별시 서초구 방배로 76 1층 (방배동),37.4811196,126.9983011,empty,2020/05/16 08:58:00,2020/05/16 15:00:00
44,12833924,우면메디칼약국,"서울특별시 서초구 태봉로 62 105호 (우면동, 네이처프라자)",37.4640396,127.0250144,empty,2020/05/16 08:24:00,2020/05/16 15:00:00
45,12829234,서초내곡약국,"서울특별시 서초구 청계산로 189 1층 105호 (신원동, 내곡드림시티 Ⅱ)",37.4483161,127.0553844,empty,2020/05/16 08:32:00,2020/05/16 15:00:00
46,12829544,아크로비스타약국,"서울특별시 서초구 서초중앙로 188 지하1층 지하에이-132호 (서초동, 아크로비스타)",37.49867,127.0130325,empty,2020/05/16 08:33:00,2020/05/16 15:00:00
47,12833177,신명성약국,서울특별시 서초구 서래로8길 1 (반포동),37.4987479,126.9985894,empty,2020/05/16 08:52:00,2020/05/16 15:00:00
48,12856851,지티타워약국,"서울특별시 서초구 서초대로 411 지하1층 (서초동, 지티타워)",37.4979716,127.0259786,empty,2020/04/27 11:54:00,2020/05/03 23:55:00
49,12857530,미소약국,"서울특별시 서초구 서운로 39 1층 101호 (서초동, 원진빌딩)",37.4873985,127.0285135,empty,2020/05/16 09:14:00,2020/05/16 15:00:00
50,12870510,방배세명약국,서울특별시 서초구 동작대로 114 1층 (방배동),37.4868002,126.9827042,empty,2020/05/16 08:44:00,2020/05/16 15:00:00
51,11854740,즐거운약국,서울특별시 서초구 동광로1길 112 206호 (방배동),37.4968205,126.9845952,empty,2020/05/16 08:28:00,2020/05/16 15:00:00
52,12860026,나을약국,"서울특별시 서초구 서초중앙로 138 3층 (서초동, 우림빌딩)",37.4942515,127.0139865,empty,2020/05/16 09:28:00,2020/05/16 15:00:00
53,11854022,십자당약국,서울특별시 서초구 남부순환로339길 53 1층 (서초동),37.4853822,127.0215079,empty,2020/05/16 07:46:00,2020/05/16 15:00:00
54,12861901,사랑손약국,"서울특별시 서초구 서초대로38길 12 103호 (서초동, 마제스타시티타워원)",37.490495,127.0053816,empty,2020/05/16 08:05:00,2020/05/16 15:00:00
55,12858536,방배세명약국,"서울특별시 서초구 동작대로 114 1층 (방배동, (재)원불교 유문빌딩)",37.4868002,126.9827042,empty,2020/04/28 14:31:00,2020/05/03 23:55:00
56,11855185,한영온누리약국,서울특별시 서초구 방배로 36 (방배동),37.4781182,127.0001766,empty,2020/05/16 08:47:00,2020/05/16 15:00:00
57,11870966,한일약국,"서울특별시 서초구 법원로 15 지하1층 (서초동, 정곡빌딩 서관)",37.4941711,127.0100149,few,2020/05/15 09:10:00,2020/05/16 15:00:00
58,11803657,한신메디칼약국,"서울특별시 서초구 잠원로 94 지층 (잠원동, 한신상가)",37.5127259,127.0068701,few,2020/05/16 08:56:00,2020/05/16 15:00:00
59,12865516,서경약국,서울특별시 서초구 방배로 95 2층 (방배동),37.4826852,126.9964077,few,2020/05/16 08:52:00,2020/05/16 15:00:00
60,12837610,반포자이중앙약국,"서울특별시 서초구 잠원로 24 408호 (반포동, 반포자이프라자상가)",37.5071118,127.0098751,few,2020/05/16 09:12:00,2020/05/16 15:00:00
61,11890576,그린약국,"서울특별시 서초구 효령로 394 102호 (서초동, 시범빌딩)",37.4878655,127.0269083,few,2020/05/16 09:04:00,2020/05/16 15:00:00
62,12810801,가온약국,서울특별시 서초구 강남대로 465 교보타워 B동 지상1층 (서초동),37.5038061,127.0241492,few,2020/05/16 10:43:00,2020/05/16 15:00:00
63,12866903,씨케이광생약국,서울특별시 서초구 강남대로 559 1층 101호 (잠원동),37.5117874,127.0205649,few,2020/05/16 08:58:00,2020/05/16 15:00:00
64,12858838,뿌리약국,"서울특별시 서초구 방배로 177 (방배동, 레마빌딩)",37.4892973,126.9922868,few,2020/05/16 07:48:00,2020/05/16 15:00:00
65,12843636,강남사랑약국,서울특별시 서초구 효령로 12 1층 (방배동),37.4768774,126.9867478,few,2020/05/16 08:55:00,2020/05/16 15:00:00
66,11803011,아란약국,"서울특별시 서초구 서운로 184 333호 (서초동, 영동프라자)",37.4997906,127.0231824,few,2020/05/16 08:52:00,2020/05/16 15:00:00
67,12851833,메디칼약국,"서울특별시 서초구 방배로 115 1층 (방배동, 방배메디칼빌딩)",37.484401,126.9954182,few,2020/05/15 09:52:00,2020/05/16 15:00:00
68,12870170,숲약국,"서울특별시 서초구 잠원로 148 107호 (잠원동, 잠원연합상가)",37.5162656,127.0100739,few,2020/05/16 09:03:00,2020/05/16 15:00:00
69,12832839,행복나눔약국,"서울특별시 서초구 잠원로 24 406호 (반포동, 반포자이플라자)",37.5071118,127.0098751,few,2020/05/16 09:00:00,2020/05/16 15:00:00
70,11874813,조은약국,"서울특별시 서초구 사평대로57길 54 1층 (반포동, 여호수아빌딩)",37.5066094,127.0226368,few,2020/05/16 09:25:00,2020/05/16 15:00:00
71,12843504,나은약국,서울특별시 서초구 남부순환로287길 9-1 (방배동),37.4762829,126.9875282,few,2020/05/16 10:29:00,2020/05/16 15:00:00
72,12854379,아라타워아이약국,"서울특별시 서초구 서초대로77길 3 1202호 (서초동, 아라타워)",37.4979429,127.0265303,few,2020/05/16 11:06:00,2020/05/16 15:00:00
73,12838756,신우성약국,서울특별시 서초구 잠원로4길 54 매일종합상가 309호 (잠원동),37.513024,127.0127663,few,2020/05/16 08:32:00,2020/05/16 15:00:00
74,12841528,진약국,"서울특별시 서초구 서초대로 302 102호 (서초동, 인앤인빌딩 )",37.4937277,127.0147172,plenty,2020/05/16 09:50:00,2020/05/16 15:00:00
75,12861057,서래비비약국,서울특별시 서초구 방배로 232 1층 (방배동),37.4939257,126.9900089,plenty,2020/05/16 10:14:00,2020/05/16 15:00:00
76,12839728,양재메디칼약국,서울특별시 서초구 동산로 64 (양재동),37.4718182,127.0457816,plenty,2020/05/16 10:15:00,2020/05/16 15:00:00
77,12840050,잠원스타약국,서울특별시 서초구 잠원로4길 33-2 잠원동 스타빌딩 111호 (잠원동),37.5128156,127.0106598,plenty,2020/05/16 09:28:00,2020/05/16 15:00:00
78,12841005,햇살약국,"서울특별시 서초구 사임당로 138 101호 (서초동, 신동아아파트상가)",37.4911287,127.0248258,plenty,2020/05/16 09:27:00,2020/05/16 15:00:00
79,12868108,새봄약국,서울특별시 서초구 반포대로30길 82 우서빌딩 1층 102호 (서초동),37.4925781,127.0129955,plenty,2020/05/16 08:47:00,2020/05/16 15:00:00
80,12861171,하나로약국,서울특별시 서초구 청계산로 10 1층 (양재동),37.4632288,127.0435302,plenty,2020/05/16 12:22:00,2020/05/16 15:00:00
81,12868639,남부장수약국,서울특별시 서초구 동산로 60 1층 (양재동),37.471705,127.045438,plenty,2020/05/14 20:47:00,2020/05/16 15:00:00
82,12864749,샘약국,서울특별시 서초구 사임당로 38 큐브플러스 2층 202-2호 (서초동),37.4880847,127.0142926,plenty,2020/05/16 09:00:00,2020/05/16 15:00:00
83,12864242,엔티약국,서울특별시 서초구 효령로 292 서울남부터미널 117호 (서초동),37.4835466,127.0151108,plenty,2020/05/16 07:20:00,2020/05/16 15:00:00
84,12838322,세진약국,"서울특별시 서초구 서초중앙로 125 1층 105호 (서초동, 로이어즈타워)",37.493098,127.013494,plenty,2020/05/16 09:17:00,2020/05/16 15:00:00
85,12838101,사당13번약국,"서울특별시 서초구 방배천로 5-3 1층 (방배동, 도양빌딩)",37.4770623,126.9822612,plenty,2020/05/16 08:54:00,2020/05/16 15:00:00
86,12861201,서초늘봄약국,"서울특별시 서초구 서초대로38길 12 지하2층 (서초동, 마제스타시티,힐스테이트서리풀)",37.4901238,127.0059896,plenty,2020/05/16 10:13:00,2020/05/16 15:00:00
87,12836427,킴스약국,"서울특별시 서초구 잠원로 69 1층 (잠원동, 킴스클럽)",37.5101489,127.0071056,plenty,2020/05/16 08:52:00,2020/05/16 15:00:00
88,12833771,메디팜메트로약국,서울특별시 서초구 효령로2길 4 (방배동),37.4763378,126.9865321,plenty,2020/05/16 08:57:00,2020/05/16 15:00:00
89,12833398,서초늘푸른약국,"서울특별시 서초구 잠원로8길 25 117호 (잠원동, 대림아파트상가 )",37.5144057,127.011511,plenty,2020/05/16 09:02:00,2020/05/16 15:00:00
90,12861642,밝은약국,"서울특별시 서초구 사평대로56길 7 1층 106호 (서초동, 서초한일유앤아이주상복합)",37.5032162,127.0235331,plenty,2020/05/16 09:55:00,2020/05/16 15:00:00
91,12869414,8층약국,서울특별시 서초구 서초중앙로 125 로이어즈타워 8층 803호 (서초동),37.4929935,127.0134514,plenty,2020/05/16 08:53:00,2020/05/16 15:00:00
92,12862631,초이스약국,"서울특별시 서초구 강남대로 375 104호 (서초동, 서초현대타워아파트)",37.4964468,127.0279546,plenty,2020/05/16 09:17:00,2020/05/16 15:00:00
93,12832936,수정약국,서울특별시 서초구 논현로 67 1층 (양재동),37.4760709,127.04586,plenty,2020/05/16 10:49:00,2020/05/16 15:00:00
94,12868787,구슬약국,서울특별시 서초구 서초중앙로 113 영한빌딩 1층 (서초동),37.4918747,127.0137428,plenty,2020/05/16 09:05:00,2020/05/16 15:00:00
95,12842664,두리약국,"서울특별시 서초구 사임당로 180 201호 (서초동, 보원빌딩)",37.4925885,127.0292834,plenty,2020/05/16 10:01:00,2020/05/16 15:00:00
96,12844152,비타민약국,"서울특별시 서초구 방배로 32 2층 2호 (방배동, 방배쇼핑센터)",37.4778415,127.0003899,plenty,2020/05/16 09:00:00,2020/05/16 15:00:00
97,12843181,바른온누리약국,서울특별시 서초구 방배로 108 1층 (방배동),37.4838342,126.9964441,plenty,2020/05/16 12:29:00,2020/05/16 15:00:00
98,12854450,원약국,"서울특별시 서초구 서초중앙로 36 1층 (서초동, 준영빌딩)",37.4855763,127.0162228,plenty,2020/05/16 08:54:00,2020/05/16 15:00:00
99,12857947,위드팜서초역약국,서울특별시 서초구 반포대로 138 양진빌딩 (서초동),37.4924204,127.0079825,plenty,2020/05/16 09:02:00,2020/05/16 15:00:00
100,12864366,퍼스트케어약국,서울특별시 서초구 강남대로 381 두산베어스텔 304호 (서초동),37.4966918,127.0277221,plenty,2020/05/16 13:12:00,2020/05/16 15:00:00
101,12854212,더하늘약국,서울특별시 서초구 강남대로 509 1층 (반포동),37.5076446,127.0224917,plenty,2020/05/16 13:08:00,2020/05/16 15:00:00
102,12866253,양재소망약국,서울특별시 서초구 언남1길 3 1층 102호 (양재동),37.4722051,127.0407553,plenty,2020/05/16 09:03:00,2020/05/16 15:00:00
103,12852848,강남약국,"서울특별시 서초구 강남대로 463 지하1층 102호 (서초동, 리젠타워)",37.5034826,127.024458,plenty,2020/05/16 09:39:00,2020/05/16 15:00:00
104,12852481,반포다정약국,서울특별시 서초구 반포대로 287 138호 (반포동),37.5045721,127.0006446,plenty,2020/05/16 08:39:00,2020/05/16 15:00:00
105,12852295,굿약국,서울특별시 서초구 서초대로77길 24 강남 지웰타워2 (서초동),37.5000183,127.0260094,plenty,2020/05/16 13:57:00,2020/05/16 15:00:00
106,12866857,에이트약국,서울특별시 서초구 강남대로 423 한승빌딩 1층 (서초동),37.5002585,127.0258452,plenty,2020/05/16 10:15:00,2020/05/16 15:00:00
107,12851949,신원약국,서울특별시 서초구 강남대로10길 60-1 101호 (양재동),37.4697225,127.0425255,plenty,2020/05/16 08:50:00,2020/05/16 15:00:00
108,12851884,세븐약국,"서울특별시 서초구 서초대로 240 지하1층 B02호 (서초동, 서초동 동일하이빌)",37.4914975,127.0082712,plenty,2020/05/16 09:26:00,2020/05/16 15:00:00
109,12850837,이층은약국,"서울특별시 서초구 서초중앙로 230 2층 208호 (반포동, 동화반포프라자상가)",37.5022495,127.0120029,plenty,2020/05/16 09:18:00,2020/05/16 15:00:00
110,12850713,평강약국,"서울특별시 서초구 서초중앙로24길 55 306호 (서초동, 중앙서초플라자)",37.4961123,127.0194059,plenty,2020/05/14 08:33:00,2020/05/16 15:00:00
111,12859591,뿌리본약국,"서울특별시 서초구 남부순환로 2585 25호 (서초동, 양재역)",37.4839347,127.0345442,plenty,2020/05/16 10:51:00,2020/05/16 15:00:00
112,12862908,약사랑약국,서울특별시 서초구 강남대로 221 양재역환승주차장 3층 303호 (양재동),37.4834254,127.03433,plenty,2020/05/15 09:22:00,2020/05/16 15:00:00
113,12866954,오약국,서울특별시 서초구 서래로 46 1층 (반포동),37.4991169,126.9986055,plenty,2020/05/16 08:28:00,2020/05/16 15:00:00
114,12867063,동해물약국,서울특별시 서초구 동광로12가길 42 1층 (방배동),37.4875211,126.9826143,plenty,2020/05/16 08:57:00,2020/05/16 15:00:00
115,12867110,봄약국,"서울특별시 서초구 헌릉로8길 45 2층 203호 (내곡동, 서초 포레스타 2단지)",37.4555506,127.0609502,plenty,2020/05/16 12:52:00,2020/05/16 15:00:00
116,12860191,펜타약국,"서울특별시 서초구 서초대로78길 48 (서초동, 송림빌딩)",37.4934899,127.0286063,plenty,2020/05/15 09:35:00,2020/05/16 15:00:00
117,12845469,새드림약국,서울특별시 서초구 강남대로 435 주류성빌딩 1층 (서초동),37.5011826,127.0255738,plenty,2020/05/15 09:33:00,2020/05/16 15:00:00
118,12867705,아이약국,서울특별시 서초구 서초대로77길 55 에이프로 스퀘어 1층 (서초동),37.5020128,127.0244608,plenty,2020/05/16 09:58:00,2020/05/16 15:00:00
119,12845183,메딕스약국,서울특별시 서초구 고무래로 32 반포트라이엄프메딕스빌딩 107호 (반포동),37.5024256,127.0122323,plenty,2020/05/16 08:47:00,2020/05/16 15:00:00
120,12844683,기린약국,서울특별시 서초구 잠원로 24 130호 (반포동),37.5071118,127.0098751,plenty,2020/05/16 09:03:00,2020/05/16 15:00:00
121,12860417,연두약국,서울특별시 서초구 태봉로 70 우면프라자Ι 110호 (우면동),37.4645488,127.0255942,plenty,2020/05/16 09:18:00,2020/05/16 15:00:00
122,12865001,유킹스파머시메디바움약국,서울특별시 서초구 효령로 177 1층 (서초동),37.4827963,127.0033891,plenty,2020/05/16 08:06:00,2020/05/16 15:00:00
123,12867969,새열린약국,서울특별시 서초구 강남대로 449-3 보보빌딩 1층 (서초동),37.5023687,127.0248894,plenty,2020/05/16 10:57:00,2020/05/16 15:00:00
124,12860891,늘픔약국,서울특별시 서초구 헌릉로8길 9-8 1층 108호 (내곡동),37.4566898,127.0599758,plenty,2020/05/16 08:59:00,2020/05/16 15:00:00
125,12842800,사랑약국,서울특별시 서초구 신반포로 100 래미안 퍼스티지 신반포역상가 2층 210호 (반포동),37.503137,126.995885,plenty,2020/05/16 12:01:00,2020/05/16 15:00:00
126,12862860,신사행복나눔약국,서울특별시 서초구 강남대로 605 휴먼TOWER 104호 (잠원동),37.5157646,127.0192069,plenty,2020/05/16 14:43:00,2020/05/16 15:00:00
127,11800208,서초삼성약국,서울특별시 서초구 서초대로74길 23 102호 (서초동),37.4956227,127.0271068,plenty,2020/05/16 08:55:00,2020/05/16 15:00:00
128,12830721,영약국,"서울특별시 서초구 강남대로 415 8층 (서초동, 대동빌딩)",37.4995532,127.026354,plenty,2020/05/15 18:00:00,2020/05/16 15:00:00
129,11854855,온누리동성약국,서울특별시 서초구 동작대로 194 (방배동),37.4938353,126.9832127,plenty,2020/05/16 09:13:00,2020/05/16 15:00:00
130,11854898,정신약국,서울특별시 서초구 방배로 196 (방배동),37.4910419,126.9918915,plenty,2020/05/16 09:40:00,2020/05/16 15:00:00
131,11854928,정은약국,서울특별시 서초구 방배중앙로 140 1층 (방배동),37.4916462,126.9870712,plenty,2020/05/15 09:10:00,2020/05/16 15:00:00
132,11855045,보현약국,서울특별시 서초구 방배로13길 7 (방배동),37.48297,126.9959656,plenty,2020/05/16 09:20:00,2020/05/16 15:00:00
133,11855053,방일약국,서울특별시 서초구 방배로13길 31 (방배동),37.4825235,126.9948552,plenty,2020/05/16 08:33:00,2020/05/16 15:00:00
134,11855762,금화온누리약국,"서울특별시 서초구 반포대로 287 125호 (반포동, 래미안퍼스티지중심상가)",37.50450395,127.0005993,plenty,2020/05/16 08:14:00,2020/05/16 15:00:00
135,11855789,방배프라자약국,서울특별시 서초구 방배중앙로29길 3 1층 (방배동),37.4964722,126.9853016,plenty,2020/05/16 08:58:00,2020/05/16 15:00:00
136,11856017,자이프라자약국,"서울특별시 서초구 잠원로 24 1층 (반포동, 반포자이프라자상가)",37.50715923,127.0097898,plenty,2020/05/16 11:17:00,2020/05/16 15:00:00
137,11856076,샘터약국,"서울특별시 서초구 서초중앙로 230 101호 (반포동, 동화반포프라자빌딩)",37.50216885,127.0120781,plenty,2020/05/16 09:32:00,2020/05/16 15:00:00
138,11860278,보람약국,서울특별시 서초구 서초중앙로 239 (반포동),37.5032427,127.0108591,plenty,2020/05/16 11:41:00,2020/05/16 15:00:00
139,11868201,푸른약국,"서울특별시 서초구 서초대로 3-4 1층 101-3호 (방배동, 방배디오슈페리움)",37.4860933,126.9829747,plenty,2020/05/16 09:16:00,2020/05/16 15:00:00
140,12830879,반원온누리약국,서울특별시 서초구 잠원로3길 40 태남홀딩스 1층 103-2호 (잠원동),37.5082154,127.0036767,plenty,2020/05/16 08:56:00,2020/05/16 15:00:00
141,11873523,생각하는약국,서울특별시 서초구 청계산로9길 70 105호 (내곡동),37.4534234,127.059914,plenty,2020/05/16 08:42:00,2020/05/16 15:00:00
142,11874708,숨온누리약국,서울특별시 서초구 서초대로 114 102호 (방배동),37.4877484,126.9948034,plenty,2020/05/16 08:12:00,2020/05/16 15:00:00
143,11878576,고연뿌리약국,"서울특별시 서초구 신반포로 188 지하1층 (반포동, 강남고속터미널역)",37.5049302,127.0049482,plenty,2020/05/15 13:33:00,2020/05/16 15:00:00
144,11882492,빛샘온누리약국,서울특별시 서초구 서초대로 331 1층 (서초동),37.4951577,127.0176552,plenty,2020/05/15 12:42:00,2020/05/16 15:00:00
145,11883847,건강과행복이열리는약국,서울특별시 서초구 서초대로 307 (서초동),37.4944061,127.0151321,plenty,2020/05/16 11:30:00,2020/05/16 15:00:00
146,11854812,수도약국,서울특별시 서초구 동광로 65 (방배동),37.4927391,126.9896986,plenty,2020/05/16 13:33:00,2020/05/16 15:00:00
147,11854791,성지약국,"서울특별시 서초구 방배로 268 103호 (방배동, 삼호상가)",37.4966615,126.9883974,plenty,2020/05/16 09:32:00,2020/05/16 15:00:00
148,11854413,알파약국,"서울특별시 서초구 사임당로 181 102호 (서초동, 대일빌딩)",37.4930451,127.0293404,plenty,2020/05/16 08:38:00,2020/05/16 15:00:00
149,11854391,양재신세계약국,서울특별시 서초구 매헌로 34 한일빌딩 (양재동),37.4640419,127.0348038,plenty,2020/05/16 08:41:00,2020/05/16 15:00:00
150,11802090,영보서초프라자약국,서울특별시 서초구 방배로 88 1층 (방배동),37.482364,126.9973977,plenty,2020/05/16 08:48:00,2020/05/16 15:00:00
151,11808390,서초백화점약국,"서울특별시 서초구 효령로 279 1층 (서초동, 상경빌딩)",37.4849497,127.0147775,plenty,2020/05/16 08:53:00,2020/05/16 15:00:00
152,11809868,남영약국,서울특별시 서초구 동광로 75 1층 (방배동),37.4930534,126.9906663,plenty,2020/05/15 15:16:00,2020/05/16 15:00:00
153,11816538,현대영약국,"서울특별시 서초구 강남대로 375 4층 (서초동, 서초현대타워)",37.4964225,127.0277765,plenty,2020/05/16 07:57:00,2020/05/16 15:00:00
154,11822821,메디팜유일약국,서울특별시 서초구 효령로46길 14 (서초동),37.4828549,127.008763,plenty,2020/05/16 08:42:00,2020/05/16 15:00:00
155,11824719,연세온누리약국,"서울특별시 서초구 신반포로 177 3동 1층 55호,56호 (잠원동, 반포쇼핑)",37.5060987,127.0034174,plenty,2020/05/16 08:57:00,2020/05/16 15:00:00
156,11828111,신논현올리브약국,"서울특별시 서초구 강남대로 507 1층 (반포동, 신태양빌딩)",37.5071711,127.0227046,plenty,2020/05/16 13:50:00,2020/05/16 15:00:00
157,11829958,티파니약국,서울특별시 서초구 고무래로 18 1층 (반포동),37.5029914,127.0104564,plenty,2020/05/16 10:01:00,2020/05/16 15:00:00
158,11884835,3층한사랑약국,"서울특별시 서초구 반포대로 287 311호 (반포동, 래미안퍼스티지중심상가)",37.50440748,127.0010481,plenty,2020/05/16 11:11:00,2020/05/16 15:00:00
159,11835851,슈퍼빌온누리약국,"서울특별시 서초구 서초중앙로 15 106호 (서초동, 현대슈퍼빌상가동)",37.4828044,127.0160719,plenty,2020/05/16 10:28:00,2020/05/16 15:00:00
160,11848391,서리풀약국,"서울특별시 서초구 서리풀길 1 102호 (서초동, 자연빌딩)",37.4865092,127.0209709,plenty,2020/05/16 09:15:00,2020/05/16 15:00:00
161,11851783,메디팜 동양약국,서울특별시 서초구 사임당로 157 릿타워 410호 (서초동),37.4924723,127.026839,plenty,2020/05/16 09:51:00,2020/05/16 15:00:00
162,11852810,서초로하스약국,서울특별시 서초구 서초중앙로 39 21세기 병원 1층 (서초동),37.4852908,127.0157273,plenty,2020/05/16 07:29:00,2020/05/16 15:00:00
163,11853948,일이약국,"서울특별시 서초구 서초대로 306 1층 (서초동, 진영빌딩)",37.4938614,127.0151597,plenty,2020/05/16 10:06:00,2020/05/16 15:00:00
164,11853964,자연약국,서울특별시 서초구 효령로68길 114 (서초동),37.4852246,127.0186682,plenty,2020/05/16 08:56:00,2020/05/16 15:00:00
165,11854014,팜메이트대학당약국,서울특별시 서초구 서초중앙로22길 40 (서초동),37.4932316,127.016205,plenty,2020/05/16 08:54:00,2020/05/16 15:00:00
166,11854031,대림약국,서울특별시 서초구 사임당로 105 (서초동),37.4905531,127.0212546,plenty,2020/05/16 08:53:00,2020/05/16 15:00:00
167,11854201,다보약국,서울특별시 서초구 서초대로40길 77 101호 (서초동),37.4882498,127.00875,plenty,2020/05/16 08:47:00,2020/05/16 15:00:00
168,11847824,반포프라자약국,서울특별시 서초구 신반포로 329 1층 5호 (잠원동),37.5108022,127.0195244,plenty,2020/05/16 08:45:00,2020/05/16 15:00:00
169,11887184,홈케어방배약국,서울특별시 서초구 서초대로 24 1층 (방배동),37.4854712,126.985056,plenty,2020/05/16 09:06:00,2020/05/16 15:00:00
170,11873426,서초당약국,"서울특별시 서초구 서초중앙로 107 (서초동, 삼화빌딩)",37.4914591,127.0137966,plenty,2020/05/16 10:32:00,2020/05/16 15:00:00
171,11888385,해맑은약국,"서울특별시 서초구 남부순환로350길 4 2층 (양재동, 대진빌딩)",37.4843523,127.0352051,plenty,2020/05/15 11:25:00,2020/05/16 15:00:00
172,12808946,희망약국,서울특별시 서초구 신반포로 205 403호 (잠원동),37.5070108,127.006438,plenty,2020/05/16 07:44:00,2020/05/16 15:00:00
173,12809012,바른약국,"서울특별시 서초구 서초중앙로 45 1층 102호 (서초동, 서초레몬)",37.4857896,127.0154596,plenty,2020/05/16 09:44:00,2020/05/16 15:00:00
174,12810053,천사약국,서울특별시 서초구 사평대로 205 4층 (반포동),37.5044879,127.0078625,plenty,2020/05/16 09:39:00,2020/05/16 15:00:00
175,11887982,태평양약국,"서울특별시 서초구 중앙로 582 103호 (우면동, 서초타워)",37.4571487,127.015332,plenty,2020/05/16 08:52:00,2020/05/16 15:00:00
176,12812170,더블유스토어하이약국,서울특별시 서초구 사임당로 39 한성빌딩 (서초동),37.4884264,127.0141123,plenty,2020/05/16 11:31:00,2020/05/16 15:00:00
177,12813770,굿모닝약국,"서울특별시 서초구 신반포로 176 125호 (반포동, 센트럴시티)",37.5049178,127.0032131,plenty,2020/05/16 09:16:00,2020/05/16 15:00:00
178,12814164,동우약국,"서울특별시 서초구 남부순환로356길 15 111,112,126호 (양재동, 양재종합시장)",37.4843263,127.0379729,plenty,2020/05/16 10:09:00,2020/05/16 15:00:00
179,12816370,사랑의약국,"서울특별시 서초구 신반포로 165 2동 1층 1-2호 (잠원동, 반포쇼핑타운)",37.5057266,127.0021903,plenty,2020/05/16 08:51:00,2020/05/16 15:00:00
180,12816388,푸른솔약국,"서울특별시 서초구 서초대로 317 1층 (서초동, 건원빌딩)",37.49476,127.016321,plenty,2020/05/16 09:14:00,2020/05/16 15:00:00
181,12816574,씨티약국,서울특별시 서초구 강남대로 597 1층 (잠원동),37.5150433,127.0193368,plenty,2020/05/16 09:01:00,2020/05/16 15:00:00
182,12817732,고속터미널약국,서울특별시 서초구 신반포로 194 서울고속버스터미널 본관동1층 쇼케이스1호 (반포동),37.5044991,127.0056986,plenty,2020/05/16 09:01:00,2020/05/16 15:00:00
183,12818917,방배대한약국,"서울특별시 서초구 동작대로 118 107호 (방배동, 방배예다인)",37.4870229,126.9828023,plenty,2020/05/16 13:57:00,2020/05/16 15:00:00
184,12820431,서초제일약국,"서울특별시 서초구 방배로 111 1층 (방배동, 근복빌딩)",37.4839058,126.9956497,plenty,2020/05/16 09:07:00,2020/05/16 15:00:00
185,12822361,한약국,서울특별시 서초구 강남대로 545-4 1층 (반포동),37.510542,127.0211522,plenty,2020/05/16 10:21:00,2020/05/16 15:00:00
186,12822922,늘푸른약국,서울특별시 서초구 반포대로 114 지하1층 102호 (서초동),37.4904873,127.0087491,plenty,2020/05/15 10:09:00,2020/05/16 15:00:00
187,12823210,조달약국,"서울특별시 서초구 반포대로 235 지하1층 (반포동, 효성빌딩)",37.5006686,127.0032572,plenty,2020/05/16 08:38:00,2020/05/16 15:00:00
188,12824950,제이약국,서울특별시 서초구 서초대로 323 삼풍프라자 1층 6호 (서초동),37.4948927,127.0168286,plenty,2020/05/16 12:59:00,2020/05/16 15:00:00
189,12828955,하이팜약국,서울특별시 서초구 사임당로 178 이즈타워 103호 (서초동),37.4922357,127.0290714,plenty,2020/05/16 10:22:00,2020/05/16 15:00:00
190,12829871,구룡수약국,서울특별시 서초구 논현로31길 41 1층 (양재동),37.4808718,127.0413113,plenty,2020/05/16 08:47:00,2020/05/16 15:00:00
191,12808881,메디컬제일약국,"서울특별시 서초구 방배로 225 1층 (방배동, 성은빌딩)",37.4931756,126.9897944,plenty,2020/05/16 08:43:00,2020/05/16 15:00:00
192,12808083,환승약국,"서울특별시 서초구 강남대로 221 107호 (양재동, 양재역환승주차장)",37.483329,127.034691,plenty,2020/05/16 09:15:00,2020/05/16 15:00:00
193,12811068,드림약국,"서울특별시 서초구 서초중앙로 124 1층 (서초동, 한림빌딩)",37.4928604,127.0141471,plenty,2020/05/15 13:46:00,2020/05/16 15:00:00
194,12804916,장수알파약국,서울특별시 서초구 서초중앙로 38 정원빌딩 1층 (서초동),37.485459,127.0163019,plenty,2020/05/16 07:32:00,2020/05/16 15:00:00
195,11894831,한샘약국,"서울특별시 서초구 신반포로 205 6동 1층 (잠원동, 반포쇼핑)",37.506922,127.006405,plenty,2020/05/16 07:58:00,2020/05/16 15:00:00
196,11895110,신사스타약국,서울특별시 서초구 강남대로 621 1층 (잠원동),37.5171234,127.0187945,plenty,2020/05/16 10:42:00,2020/05/16 15:00:00
197,11896426,스타약국,서울특별시 서초구 강남대로 437 대원빌딩 1층 (서초동),37.5013657,127.0255201,plenty,2020/05/16 12:53:00,2020/05/16 15:00:00
198,12800031,이수온누리약국,"서울특별시 서초구 동작대로 108 304호 (방배동, 디오슈페리움2차)",37.4861159,126.9826348,plenty,2020/05/16 08:12:00,2020/05/16 15:00:00
199,12801160,열린약국,서울특별시 서초구 동작대로 130 1층 (방배동),37.4880188,126.9826525,plenty,2020/05/16 08:40:00,2020/05/16 15:00:00
200,12827363,대영약국,"서울특별시 서초구 잠원로14길 29 125호 (잠원동, 설악복지센타)",37.5178106,127.0154112,plenty,2020/05/16 10:00:00,2020/05/16 15:00:00
201,11856394,도일약국,서울특별시 서초구 사평대로55길 10 (반포동),37.5046399,127.0229534,some,2020/05/16 08:46:00,2020/05/16 15:00:00
202,11855207,주앙약국,서울특별시 서초구 방배로 39 1층 (방배동),37.4781622,126.999425,some,2020/05/16 09:06:00,2020/05/16 15:00:00
203,12819921,우리들약국,"서울특별시 서초구 서초중앙로 230 105호 (반포동, 동화반포프라자빌딩)",37.502144,127.011992,some,2020/05/16 09:05:00,2020/05/16 15:00:00
204,11855649,아주약국,서울특별시 서초구 신반포로 22 H-33호 (반포동),37.501096,126.987091,some,2020/05/16 08:58:00,2020/05/16 15:00:00
205,11833190,강남메디칼약국,"서울특별시 서초구 방배로 174 1층 (방배동, 태창빌딩)",37.4891828,126.9930611,some,2020/05/16 08:38:00,2020/05/16 15:00:00
206,12866962,온새미약국,서울특별시 서초구 방배로 223 1층 1호 (방배동),37.4930421,126.9899521,some,2020/05/16 08:46:00,2020/05/16 15:00:00
207,11877723,민들레약국,서울특별시 서초구 강남대로30길 58 1층 (양재동),37.4825067,127.0404371,some,2020/05/16 10:37:00,2020/05/16 15:00:00
208,12865745,곰돌이스타약국,서울특별시 서초구 방배로 226 3층 303호 (방배동),37.4933795,126.9904635,some,2020/05/16 09:09:00,2020/05/16 15:00:00
209,11878304,늘편한약국,서울특별시 서초구 서초대로74길 3 윤빌딩 1층 (서초동),37.4972231,127.0262314,some,2020/05/16 13:15:00,2020/05/16 15:00:00
210,12858277,양재로하스약국,서울특별시 서초구 강남대로 48-6 1층 101호 (양재동),37.4691346,127.0400425,some,2020/05/16 09:53:00,2020/05/16 15:00:00
211,12825930,샛별약국,"서울특별시 서초구 서초중앙로24길 27 226호 (서초동, G5센트럴프라자)",37.4954178,127.0164171,some,2020/05/16 08:54:00,2020/05/16 15:00:00
212,12828688,스마트온누리약국,서울특별시 서초구 강남대로53길 7 강남애니타워 101호 (서초동),37.49432455,127.0283868,some,2020/05/16 09:26:00,2020/05/16 15:00:00
213,11855924,신세기약국,"서울특별시 서초구 신반포로 219 8동 106호 (잠원동, 반포쇼핑)",37.5075097,127.0080778,some,2020/05/16 10:20:00,2020/05/16 15:00:00
214,12868965,자이수약국,서울특별시 서초구 사평대로45길 10-25 109-2호 (반포동),37.506631,127.013948,some,2020/05/16 08:27:00,2020/05/16 15:00:00
215,12850110,브라운스톤약국,"서울특별시 서초구 서초대로 334 1층 105호 (서초동, 브라운스톤)",37.4947301,127.0183064,some,2020/05/16 09:47:00,2020/05/16 15:00:00
216,12806081,서초21세기약국,"서울특별시 서초구 신반포로23길 30 1층 (잠원동, 반원상가)",37.508788,127.0035627,some,2020/05/15 10:42:00,2020/05/16 15:00:00
217,12805769,반포소망약국,"서울특별시 서초구 서초중앙로 227 3층 (반포동, 진일빌딩)",37.501898,127.0114788,some,2020/05/16 08:46:00,2020/05/16 15:00:00
218,12853542,보물섬약국,"서울특별시 서초구 잠원로 24 414호 (반포동, 반포자이플라자)",37.5071118,127.0098751,some,2020/05/16 09:02:00,2020/05/16 15:00:00
219,12804487,메디팜나리약국,"서울특별시 서초구 서운로 208 1층 106호 (서초동, 삼호종합상가)",37.5015193,127.0217846,some,2020/05/16 08:42:00,2020/05/16 15:00:00
220,11856408,삼미약국,서울특별시 서초구 주흥길 8 (반포동),37.5042077,127.0209329,some,2020/05/16 11:40:00,2020/05/16 15:00:00
221,12856754,아임약국,"서울특별시 서초구 강남대로 439 1층 102호 (서초동, 유화빌딩)",37.5015461,127.0254021,some,2020/05/16 09:16:00,2020/05/16 15:00:00
222,12856401,약원한약국,서울특별시 서초구 신반포로 38 1층 10호 (반포동),37.5015073,126.9888151,some,2020/05/15 09:53:00,2020/05/16 15:00:00
223,12842290,서초아트약국,"서울특별시 서초구 반포대로 58 201동 12호 (서초동, 서초아트자이상가)",37.4856543,127.0113905,some,2020/05/16 09:14:00,2020/05/16 15:00:00
224,12812901,메디칼허브약국,"서울특별시 서초구 강남대로 615 1층 (잠원동, 금정빌딩)",37.5166301,127.0190008,some,2020/05/16 10:08:00,2020/05/16 15:00:00
225,11854731,시스템약국,서울특별시 서초구 방배중앙로23길 1 (방배동),37.492594,126.9857965,some,2020/05/16 08:37:00,2020/05/16 15:00:00
226,12865028,파스텔약국,서울특별시 서초구 신반포로33길 27 파스텔프라자 103호 (잠원동),37.5104312,127.0100932,some,2020/05/16 09:01:00,2020/05/16 15:00:00
227,12841170,에스약국,서울특별시 서초구 서초대로40길 77 102호 (서초동),37.4884085,127.0088282,some,2020/05/16 08:08:00,2020/05/16 15:00:00
228,11854359,하나약국,"서울특별시 서초구 법원로2길 23 101호 (서초동, 한성빌딩)",37.4944451,127.0132771,some,2020/05/16 09:01:00,2020/05/16 15:00:00
229,11866977,이오당약국,서울특별시 서초구 동산로6길 38 (양재동),37.4694722,127.0445049,some,2020/05/16 09:11:00,2020/05/16 15:00:00
230,12839884,아라약국,"서울특별시 서초구 서초대로77길 3 111호 (서초동, 아라타워)",37.497897,127.02646,some,2020/05/16 10:06:00,2020/05/16 15:00:00
231,12815489,다인약국,"서울특별시 서초구 남부순환로 2614 302호 (양재동, 한솔로이젠트)",37.4844777,127.0366827,some,2020/05/16 09:00:00,2020/05/16 15:00:00
232,12858293,미래약국,서울특별시 서초구 고무래로 90-7 서초쇼핑 (서초동),37.4999342,127.0174825,some,2020/05/16 08:41:00,2020/05/16 15:00:00
233,11870907,다나약국,서울특별시 서초구 효령로 229 서울빌딩 1층 (서초동),37.4838807,127.0091164,some,2020/05/16 08:45:00,2020/05/16 15:00:00
234,12845345,이든약국,"서울특별시 서초구 남부순환로 2636 1층 (양재동, 성문빌딩)",37.4849144,127.039029,some,2020/05/16 11:00:00,2020/05/16 15:00:00
235,12858421,논현온누리약국,서울특별시 서초구 강남대로 541 1층 (반포동),37.5101931,127.021184,some,2020/05/16 08:57:00,2020/05/16 15:00:00
236,11854723,유경약국,서울특별시 서초구 방배중앙로 167 (방배동),37.493928,126.9860986,,,
237,11854766,구심약국,서울특별시 서초구 동광로3길 70 (방배동),37.4940739,126.9845834,,,
238,12854191,서초메이플약국,"서울특별시 서초구 남부순환로347길 101 1층 (서초동, 조이빌딩)",37.4887143,127.0298492,,,
239,12857203,메디안약국,"서울특별시 서초구 강남대로 455 3층 305호 (서초동, 강남태영데시앙루브)",37.502832,127.0245612,,,
240,12858439,반포사랑약국,서울특별시 서초구 신반포로 330 1층 (반포동),37.5104079,127.0198206,,,
241,12869660,소망약국,서울특별시 서초구 서초중앙로 42 블루핀타워 B110호 (서초동),37.4858725,127.0162758,,,
