,code,name,addr,latitude,longitude,remain_stat,stock_at,created_at
0,12862291,신이화약국,서울특별시 성동구 용답중앙13길 2 1층 (용답동),37.5644742,127.0521285,break,2020/05/16 13:17:00,2020/05/16 15:00:00
1,12858161,후문약국,서울특별시 성동구 마조로 22-3 1층 (행당동),37.5598296,127.0414335,break,2020/05/15 08:53:00,2020/05/16 15:00:00
2,12861693,맑은샘약국,"서울특별시 성동구 금호로 117 상가동 지2층 28-1호 (금호동2가, 금호자이1차)",37.5528052,127.0223892,break,2020/05/16 09:00:00,2020/05/16 15:00:00
3,12826138,중앙종로약국,서울특별시 성동구 용답중앙15길 1 (용답동),37.5639387,127.0528571,break,2020/05/15 11:27:00,2020/05/16 15:00:00
4,12849553,신수정약국,서울특별시 성동구 성덕정길 149 (성수동2가),37.5365157,127.0598581,break,2020/05/15 09:49:00,2020/05/16 15:00:00
5,12854832,미소약국,서울특별시 성동구 왕십리로 271-1 1층 (행당동),37.5587564,127.0372969,break,2020/05/16 09:07:00,2020/05/16 15:00:00
6,12813788,건국약국,서울특별시 성동구 아차산로 92 광명타워 1층 (성수동2가),37.5447612,127.0542449,break,2020/05/16 08:56:00,2020/05/16 15:00:00
7,12862941,햇살약국,서울특별시 성동구 마장로 291 3층 (마장동),37.5658515,127.0419511,break,2020/05/16 09:01:00,2020/05/16 15:00:00
8,12863611,연세우리약국,서울특별시 성동구 왕십리로 296-1 조흥은행 (행당동),37.5607633,127.0360228,break,2020/05/15 09:06:00,2020/05/16 15:00:00
9,11871474,진로약국,"서울특별시 성동구 성덕정길 106 (성수동2가,승재빌딩 1층)",37.5371539,127.0551164,break,2020/05/16 10:27:00,2020/05/16 15:00:00
10,12865974,성수햇살약국,서울특별시 성동구 아차산로 120 베델 플레이스 3층 302호 (성수동2가),37.5439085,127.0572663,break,2020/05/15 11:30:00,2020/05/16 15:00:00
11,12832693,효민프라자약국,서울특별시 성동구 마조로 64 (마장동),37.5632966,127.0419385,break,2020/05/16 09:59:00,2020/05/16 15:00:00
12,11857323,정문약국,서울특별시 성동구 왕십리로 236-1 (행당동),37.5579438,127.0413136,break,2020/05/16 08:38:00,2020/05/16 15:00:00
13,12835161,스타빌약국,서울특별시 성동구 왕십리로 309 3층 (행당동),37.5613633,127.034556,break,2020/05/16 12:16:00,2020/05/16 15:00:00
14,12867179,사랑약국,서울특별시 성동구 독서당로 303-2 1층 (금호동3가),37.5483245,127.0228756,break,2020/05/16 08:44:00,2020/05/16 15:00:00
15,12867225,미소어울림약국,서울특별시 성동구 독서당로40길 39 옥수 어울림 211호 (옥수동),37.5416317,127.0178234,break,2020/05/16 09:09:00,2020/05/16 15:00:00
16,12867713,자이팜약국,서울특별시 성동구 고산자로2길 67 서울숲리버뷰자이(상가1동) 상가동 2층 1203호 (행당동),37.5563605,127.0380266,break,2020/05/16 12:45:00,2020/05/16 15:00:00
17,12851132,텐즈힐약국,"서울특별시 성동구 마장로 137 221동 2층 110호 (상왕십리동, 텐즈힐)",37.5692575,127.0248134,break,2020/05/16 13:11:00,2020/05/16 15:00:00
18,12868078,삼성약국,서울특별시 성동구 성덕정17길 1 1층 (성수동2가),37.537441,127.0552282,break,2020/05/16 10:56:00,2020/05/16 15:00:00
19,12866571,유명한약국,서울특별시 성동구 독서당로 295 1층 (금호동3가),37.5483893,127.0218397,break,2020/05/16 08:47:00,2020/05/16 15:00:00
20,12837792,신성림약국,서울특별시 성동구 마조로 24 (행당동),37.5598306,127.0413092,break,2020/05/16 10:42:00,2020/05/16 15:00:00
21,12858757,건강한약국,서울특별시 성동구 왕십리로 320-1 1층 (도선동),37.5623167,127.0341985,empty,2020/05/16 09:27:00,2020/05/16 15:00:00
22,12854107,해오름약국,서울특별시 성동구 독서당로 220 102호 (옥수동),37.5437687,127.0152752,empty,2020/05/16 08:43:00,2020/05/16 15:00:00
23,12808512,비타민약국,서울특별시 성동구 고산자로 253 (도선동),37.5623929,127.0356135,empty,2020/05/16 08:50:00,2020/05/16 15:00:00
24,11861690,혜민약국,"서울특별시 성동구 마조로 30 1층 (행당동, 미진빌딩)",37.5603236,127.0414441,empty,2020/05/16 08:39:00,2020/05/16 15:00:00
25,12859435,도담약국,"서울특별시 성동구 왕십리로 410 상가L동 221-1, 222호 (하왕십리동, 센트라스)",37.565054,127.0298904,empty,2020/05/16 09:14:00,2020/05/16 15:00:00
26,12802743,보람약국,서울특별시 성동구 한림말길 50 106호 (옥수동),37.5402163,127.0162647,empty,2020/05/16 08:40:00,2020/05/16 15:00:00
27,12815781,성모약국,서울특별시 성동구 뚝섬로 388 (성수동2가),37.5390165,127.0536753,empty,2020/05/16 09:14:00,2020/05/16 15:00:00
28,11820098,이수프라자약국,"서울특별시 성동구 왕십리로 309 101호 (행당동, 이수이스타빌)",37.56148,127.03471,empty,2020/03/11 10:25:00,2020/03/15 23:55:00
29,12859389,새봄약국,"서울특별시 성동구 왕십리로 410 상가L동 2층 210-1호 (하왕십리동, 센트라스)",37.5648883,127.028665,empty,2020/05/16 08:41:00,2020/05/16 15:00:00
30,11862327,진경약국,서울특별시 성동구 왕십리로 348 2층 (도선동),37.5636913,127.0316223,empty,2020/04/24 08:26:00,2020/04/26 23:55:00
31,12862827,현대약국,서울특별시 성동구 독서당로 384 중앙노인정 102호 (응봉동),37.5499106,127.0310936,few,2020/05/15 08:40:00,2020/05/16 15:00:00
32,11859806,성은약국,"서울특별시 성동구 상원길 59 (성수동1가, 쌍용아파트(상가B))",37.5493102,127.0479016,few,2020/05/16 09:09:00,2020/05/16 15:00:00
33,11859474,신동광약국,서울특별시 성동구 무수막길 82 (금호동2가),37.5531304,127.0207031,few,2020/05/16 08:24:00,2020/05/16 15:00:00
34,12843563,보명약국,서울특별시 성동구 독서당로 280-7 (금호동4가),37.5470855,127.020482,few,2020/05/16 09:27:00,2020/05/16 15:00:00
35,12868141,늘푸른약국,"서울특별시 성동구 왕십리로 410 D동 비103호 (하왕십리동, 센트라스)",37.5665508,127.0247865,few,2020/05/16 09:10:00,2020/05/16 15:00:00
36,11891114,더힘찬약국,서울특별시 성동구 독서당로 302 3층 (금호동4가),37.5478281,127.0224348,few,2020/05/16 08:19:00,2020/05/16 15:00:00
37,12836885,스마일온누리약국,서울특별시 성동구 뚝섬로 377 (성수동2가),37.5400154,127.0528865,plenty,2020/05/16 13:23:00,2020/05/16 15:00:00
38,12835668,명동온누리약국,"서울특별시 성동구 고산자로 164 107호 (행당동, 행당한신아파트)",37.5549104,127.0366365,plenty,2020/05/16 08:53:00,2020/05/16 15:00:00
39,12836958,실로암약국,서울특별시 성동구 용답중앙15길 11 (용답동),37.56455,127.0535649,plenty,2020/05/16 09:22:00,2020/05/16 15:00:00
40,11805382,세심약국,서울특별시 성동구 마장로35길 76 1층 (마장동),37.5702167,127.0419875,plenty,2020/05/15 11:22:00,2020/05/16 15:00:00
41,12830755,종로약국,서울특별시 성동구 사근동길 2 (행당동),37.559975,127.0413476,plenty,2020/05/16 08:38:00,2020/05/16 15:00:00
42,12827037,희망약국,"서울특별시 성동구 고산자로 255 (도선동,K타워 1층)",37.5626006,127.0357246,plenty,2020/05/15 08:40:00,2020/05/16 15:00:00
43,12826863,기린약국,서울특별시 성동구 독서당로 175 (옥수동),37.5419333,127.00985,plenty,2020/05/16 09:18:00,2020/05/16 15:00:00
44,12826839,허브약국,서울특별시 성동구 금호로 158-2 지1층 (금호동1가),37.5550599,127.0202976,plenty,2020/05/16 08:38:00,2020/05/16 15:00:00
45,12824968,평안약국,"서울특별시 성동구 고산자로6길 40 117호 (행당동, 레몬프라자)",37.5581615,127.0354846,plenty,2020/05/16 09:02:00,2020/05/16 15:00:00
46,12824453,정성약국,서울특별시 성동구 마장로 209 (홍익동),37.566573,127.0330512,plenty,2020/05/15 10:43:00,2020/05/16 15:00:00
47,12824330,행복이열리는건강약국,서울특별시 성동구 성수이로 113 (성수동2가),37.545153,127.0571368,plenty,2020/05/16 08:54:00,2020/05/16 15:00:00
48,12832740,성산약국,"서울특별시 성동구 고산자로 234 7층 (행당동, 나래타워)",37.5605408,127.035256,plenty,2020/05/15 09:30:00,2020/05/16 15:00:00
49,12837857,화생약국,서울특별시 성동구 행당로 1 (금호동1가),37.554793,127.0205087,plenty,2020/05/15 14:11:00,2020/05/16 15:00:00
50,12851213,유연약국,"서울특별시 성동구 왕십리로 410 상가 L동 3층 318호 (하왕십리동, 센트라스)",37.5665508,127.0247865,plenty,2020/05/15 15:25:00,2020/05/16 15:00:00
51,12839965,자연온누리약국,서울특별시 성동구 뚝섬로 400 (성수동2가),37.5385734,127.0550106,plenty,2020/05/16 11:39:00,2020/05/16 15:00:00
52,12868035,옥수온누리약국,서울특별시 성동구 매봉길 48 106호 (옥수동),37.5466971,127.0139794,plenty,2020/05/15 09:57:00,2020/05/16 15:00:00
53,12867390,이레약국,서울특별시 성동구 성덕정길 78 (성수동2가),37.537848,127.0521077,plenty,2020/05/16 09:49:00,2020/05/16 15:00:00
54,12866849,더밝은약국,서울특별시 성동구 마조로9길 15 1층 (행당동),37.5611734,127.0397723,plenty,2020/05/16 12:07:00,2020/05/16 15:00:00
55,12865711,바른약국,"서울특별시 성동구 왕십리로 410 G동 204호 (하왕십리동, 센트라스)",37.566571,127.0260648,plenty,2020/05/16 09:40:00,2020/05/16 15:00:00
56,12862843,153온누리약국,"서울특별시 성동구 왕십리로 410 K동 106호 (하왕십리동, 센트라스)",37.5652906,127.0265555,plenty,2020/05/16 09:24:00,2020/05/16 15:00:00
57,12862037,뚝섬스타약국,서울특별시 성동구 아차산로 42 지하1층 (성수동1가),37.5464768,127.0490393,plenty,2020/05/16 08:29:00,2020/05/16 15:00:00
58,12860701,우리들약국,"서울특별시 성동구 성덕정길 79 1층 (성수동2가, 정화빌딩)",37.5380219,127.0524859,plenty,2020/05/16 10:17:00,2020/05/16 15:00:00
59,12860441,어울림이층약국,"서울특별시 성동구 독서당로40길 39 2층 (옥수동, 옥수 어울림)",37.5423084,127.0181964,plenty,2020/05/16 09:07:00,2020/05/16 15:00:00
60,12854000,지안약국,서울특별시 성동구 왕십리광장로 17 왕십리민자역사 4층 OV3-1호 (행당동),37.5614417,127.0383942,plenty,2020/05/16 09:56:00,2020/05/16 15:00:00
61,12839566,옥수대한약국,서울특별시 성동구 독서당로 223 래미안 옥수 리버젠 상가 지하 209호 (옥수동),37.5442707,127.0151919,plenty,2020/05/16 09:15:00,2020/05/16 15:00:00
62,12853941,행운약국,서울특별시 성동구 왕십리로 381 1층 (하왕십리동),37.5646008,127.0279076,plenty,2020/05/16 14:50:00,2020/05/16 15:00:00
63,12852643,대풍약국,"서울특별시 성동구 사근동길 6 (행당동, 한양제일빌딩)",37.560149,127.0420294,plenty,2020/05/16 08:38:00,2020/05/16 15:00:00
64,12852538,옵티마뚝도시장약국,서울특별시 성동구 성덕정길 96-1 (성수동2가),37.5374954,127.0541245,plenty,2020/05/16 12:49:00,2020/05/16 15:00:00
65,12849081,한진약국,"서울특별시 성동구 행당로 84 309-1호 (행당동, 행당 한진타운)",37.556528,127.0288805,plenty,2020/05/16 08:51:00,2020/05/16 15:00:00
66,12849073,행복이열리는약국,서울특별시 성동구 독서당로 299-2 1층 (금호동3가),37.5483587,127.0224541,plenty,2020/05/16 09:25:00,2020/05/16 15:00:00
67,12848476,정은약국,"서울특별시 성동구 장터길 34 1층 (금호동4가, 남지빌딩)",37.5481802,127.0196328,plenty,2020/05/15 09:32:00,2020/05/16 15:00:00
68,12848182,새희망약국,서울특별시 성동구 천호대로 308 2층 (용답동),37.5652304,127.0542501,plenty,2020/05/15 10:52:00,2020/05/16 15:00:00
69,12846864,메디칼약국,서울특별시 성동구 고산자로 234 402호 (행당동),37.5604869,127.0351462,plenty,2020/05/13 11:03:00,2020/05/16 15:00:00
70,12842940,다나을약국,서울특별시 성동구 장터1길 2 (금호동3가),37.5486703,127.0169501,plenty,2020/05/16 09:50:00,2020/05/16 15:00:00
71,12842591,진약국,서울특별시 성동구 왕십리로 315 (행당동),37.5617465,127.0342572,plenty,2020/05/16 14:07:00,2020/05/16 15:00:00
72,12853810,메디팜푸른약국,서울특별시 성동구 무학로 33 104호 (하왕십리동),37.56767666,127.0261148,plenty,2020/05/16 14:20:00,2020/05/16 15:00:00
73,12824038,참사랑약국,서울특별시 성동구 마장로 300 (마장동),37.565876,127.0430897,plenty,2020/05/16 09:01:00,2020/05/16 15:00:00
74,12820172,민제약국,"서울특별시 성동구 마장로35길 76 304호 (마장동, 현대아파트상가)",37.5702629,127.0420171,plenty,2020/05/16 09:18:00,2020/05/16 15:00:00
75,12818623,선약국,서울특별시 성동구 아차산로7길 7 1층 (성수동2가),37.5459969,127.0542734,plenty,2020/05/15 09:23:00,2020/05/16 15:00:00
76,11861339,상보약국,서울특별시 성동구 동일로 83 (성수동2가),37.5403492,127.0626369,plenty,2020/05/16 09:36:00,2020/05/16 15:00:00
77,11861231,우당약국,서울특별시 성동구 연무장7길 6 (성수동2가),37.5431569,127.0545405,plenty,2020/05/16 13:41:00,2020/05/16 15:00:00
78,11861134,영민약국,서울특별시 성동구 성수일로10길 32 (성수동2가),37.5462291,127.0534046,plenty,2020/05/16 12:25:00,2020/05/16 15:00:00
79,11861011,신동아약국,서울특별시 성동구 왕십리로 92 (성수동1가),37.5457262,127.0449849,plenty,2020/05/16 11:49:00,2020/05/16 15:00:00
80,11860979,제민약국,서울특별시 성동구 성덕정길 137 (성수동2가),37.536642,127.0586485,plenty,2020/05/16 09:40:00,2020/05/16 15:00:00
81,11860952,부원약국,서울특별시 성동구 성덕정길 80 (성수동2가),37.5377811,127.0524087,plenty,2020/05/16 08:31:00,2020/05/16 15:00:00
82,11860880,수명약국,서울특별시 성동구 왕십리로 94-2 1층 (성수동1가),37.5461351,127.0449303,plenty,2020/05/16 08:55:00,2020/05/16 15:00:00
83,11860758,우리약국,서울특별시 성동구 성덕정길 34 (성수동1가),37.5388576,127.0473919,plenty,2020/05/16 10:51:00,2020/05/16 15:00:00
84,11860677,새대우약국,서울특별시 성동구 용답25길 14 (용답동),37.56185,127.0534931,plenty,2020/05/16 11:23:00,2020/05/16 15:00:00
85,11860618,용하약국,서울특별시 성동구 용답중앙27길 6 1층 (용답동),37.5629788,127.0547989,plenty,2020/05/15 11:59:00,2020/05/16 15:00:00
86,11860499,영화당약국,서울특별시 성동구 사근동길 53 (사근동),37.5609875,127.0467945,plenty,2020/05/16 10:53:00,2020/05/16 15:00:00
87,11860375,시대약국,서울특별시 성동구 마장로 321 (마장동),37.5675566,127.0447331,plenty,2020/05/16 12:40:00,2020/05/16 15:00:00
88,11860332,부일약국,서울특별시 성동구 왕십리로 275-1 (행당동),37.5589676,127.0369237,plenty,2020/05/16 12:11:00,2020/05/16 15:00:00
89,11860227,제일약국,서울특별시 성동구 독서당로 378 (응봉동),37.5496547,127.0305675,plenty,2020/05/16 08:17:00,2020/05/16 15:00:00
90,11860120,예전약국,서울특별시 성동구 왕십리로20길 34 (홍익동),37.5648785,127.0357151,plenty,2020/05/13 16:48:00,2020/05/16 15:00:00
91,11859997,유림약국,서울특별시 성동구 무학봉13길 1 (하왕십리동),37.5607639,127.0293898,plenty,2020/05/16 09:21:00,2020/05/16 15:00:00
92,11859962,상도약국,서울특별시 성동구 왕십리로21길 19 행당시장 1층 (행당동),37.5606951,127.0327718,plenty,2020/05/16 07:42:00,2020/05/16 15:00:00
93,11859938,새서독약국,서울특별시 성동구 행당로 129 (행당동),37.5584949,127.0333155,plenty,2020/05/16 10:15:00,2020/05/16 15:00:00
94,11859857,왕십리약국,서울특별시 성동구 무학봉길 92 (하왕십리동),37.5622059,127.0322163,plenty,2020/05/16 09:59:00,2020/05/16 15:00:00
95,11859539,21세기메디칼약국,서울특별시 성동구 무수막길 97 (금호동2가),37.5543387,127.0198695,plenty,2020/05/16 09:27:00,2020/05/16 15:00:00
96,11859211,도원약국,서울특별시 성동구 장터길 45-1 (금호동3가),37.5483962,127.0210729,plenty,2020/05/16 10:07:00,2020/05/16 15:00:00
97,11859202,삼일약국,서울특별시 성동구 장터길 49 (금호동3가),37.5484392,127.0213967,plenty,2020/05/14 17:04:00,2020/05/16 15:00:00
98,11854499,성수종로약국,서울특별시 성동구 아차산로7길 21 (성수동2가),37.5472084,127.0548038,plenty,2020/05/15 11:01:00,2020/05/16 15:00:00
99,11846101,수정약국,서울특별시 성동구 독서당로 300 (금호동4가),37.5480445,127.022143,plenty,2020/05/16 08:46:00,2020/05/16 15:00:00
100,11846071,염광약국,서울특별시 성동구 아차산로 116 (성수동2가),37.5440478,127.0566421,plenty,2020/05/16 07:17:00,2020/05/16 15:00:00
101,11842318,은하약국,서울특별시 성동구 장터길 32-1 (금호동4가),37.5482066,127.0194845,plenty,2020/05/16 09:04:00,2020/05/16 15:00:00
102,11818395,대한약국,서울특별시 성동구 동호로 100 511호 (금호동3가),37.5506428,127.0164657,plenty,2020/05/16 11:04:00,2020/05/16 15:00:00
103,11815248,메디팜일진약국,서울특별시 성동구 용답중앙길 80-1 (용답동),37.5626735,127.0541439,plenty,2020/05/16 10:12:00,2020/05/16 15:00:00
104,11812354,한양약국,서울특별시 성동구 마조로 17 (행당동),37.5595596,127.0404711,plenty,2020/05/16 09:18:00,2020/05/16 15:00:00
105,12822132,선영약국,서울특별시 성동구 마장로 187 (홍익동),37.5668551,127.0307612,plenty,2020/05/16 13:59:00,2020/05/16 15:00:00
106,11862017,신라약국,서울특별시 성동구 광나루로11길 26-1 (송정동),37.5501318,127.0670634,plenty,2020/05/16 09:49:00,2020/05/16 15:00:00
107,11861991,왕약국,서울특별시 성동구 광나루로 323 (송정동),37.5484242,127.0656645,plenty,2020/05/16 09:56:00,2020/05/16 15:00:00
108,11862670,신세계약국,서울특별시 성동구 성덕정길 127 (성수동2가),37.5367586,127.0575007,plenty,2020/05/16 07:09:00,2020/05/16 15:00:00
109,12816485,비트플렉스약국,"서울특별시 성동구 왕십리광장로 17 (행당동, 비트플랙스내 2층 A05,06)",37.5612636,127.0388938,plenty,2020/05/16 11:30:00,2020/05/16 15:00:00
110,12815811,푸른약국,"서울특별시 성동구 아차산로 41 (성수동1가,삼성빌딩 지하1층)",37.5469705,127.0489912,plenty,2020/05/16 08:46:00,2020/05/16 15:00:00
111,12812196,대우약국,서울특별시 성동구 독서당로 276 (금호동4가),37.5470407,127.0199724,plenty,2020/05/16 08:24:00,2020/05/16 15:00:00
112,12811408,옥수벽산약국,"서울특별시 성동구 한림말길 56 1층 (옥수동, 벽산빌라트)",37.5409494,127.0172966,plenty,2020/05/16 10:54:00,2020/05/16 15:00:00
113,12810967,새왕약국,서울특별시 성동구 광나루로 325 (송정동),37.5484452,127.0659195,plenty,2020/05/16 09:58:00,2020/05/16 15:00:00
114,12810355,대중약국,서울특별시 성동구 왕십리로 379 (하왕십리동),37.5645594,127.0281094,plenty,2020/05/16 09:09:00,2020/05/16 15:00:00
115,12809527,백두산약국,서울특별시 성동구 서울숲2길 47 (성수동1가),37.5463345,127.0440042,plenty,2020/05/16 08:21:00,2020/05/16 15:00:00
116,12808989,대학약국,서울특별시 성동구 사근동길 4 1층 (행당동),37.559988,127.0416034,plenty,2020/05/16 09:05:00,2020/05/16 15:00:00
117,12808075,우인약국,서울특별시 성동구 왕십리로 339 (하왕십리동),37.5629122,127.0321022,plenty,2020/05/16 07:43:00,2020/05/16 15:00:00
118,12803448,수지약국,"서울특별시 성동구 마장로 289 3층 (마장동, 엠디빌딩)",37.5658977,127.0416737,plenty,2020/05/16 10:29:00,2020/05/16 15:00:00
119,12801861,산호약국,서울특별시 성동구 왕십리로 328-1 산호약국 1층 (도선동),37.5627465,127.0334712,plenty,2020/05/16 13:20:00,2020/05/16 15:00:00
120,11897341,나무약국,서울특별시 성동구 금호로 94 금호힐오피스텔 2층 201호 (금호동1가),37.5516783,127.0257091,plenty,2020/05/16 08:15:00,2020/05/16 15:00:00
121,11862025,새인선약국,서울특별시 성동구 광나루로11길 41-1 1층 (송정동),37.5515179,127.0678655,plenty,2020/05/16 09:20:00,2020/05/16 15:00:00
122,11886528,행복한약국,서울특별시 성동구 독서당로 218 (옥수동),37.5425134,127.0138504,plenty,2020/05/15 10:33:00,2020/05/16 15:00:00
123,11889951,메디팜대림약국,"서울특별시 성동구 행당로 87 331호 (행당동, 대림리빙프라자)",37.557906,127.0271171,plenty,2020/05/16 10:13:00,2020/05/16 15:00:00
124,11877952,신금호약국,"서울특별시 성동구 행당로 1 1층 (금호동1가, 로타리빌딩)",37.554778,127.020351,plenty,2020/05/16 08:50:00,2020/05/16 15:00:00
125,11871806,메디팜한솔약국,"서울특별시 성동구 행당로 84 132호 (행당동, 행당한진타운종합상가)",37.5566018,127.0288226,plenty,2020/05/16 08:43:00,2020/05/16 15:00:00
126,11874571,메디팜보배약국,서울특별시 성동구 아차산로7길 19 (성수동2가),37.5468641,127.054704,plenty,2020/05/16 10:00:00,2020/05/16 15:00:00
127,11876352,동틀약국,서울특별시 성동구 동일로 135 (성수동2가),37.5445697,127.0650293,plenty,2020/05/16 09:47:00,2020/05/16 15:00:00
128,11885602,이화한솔약국,서울특별시 성동구 고산자로 342 (마장동),37.5699762,127.0378655,plenty,2020/05/16 09:23:00,2020/05/16 15:00:00
129,12869473,서울숲팜프라자약국,서울특별시 성동구 왕십리로 50 지하 1층 (성수동1가),37.5418885,127.0448912,plenty,2020/05/16 13:53:00,2020/05/16 15:00:00
130,11880325,국제약국,서울특별시 성동구 독서당로 288-1 (금호동4가),37.5477742,127.0212469,plenty,2020/05/16 08:54:00,2020/05/16 15:00:00
131,11880228,금호프라자약국,서울특별시 성동구 독서당로 302 1층 (금호동4가),37.5480506,127.0225398,plenty,2020/05/16 08:26:00,2020/05/16 15:00:00
132,11879661,메디팜호정약국,서울특별시 성동구 성수일로 39 (성수동1가),37.5442422,127.0492652,some,2020/05/16 09:20:00,2020/05/16 15:00:00
133,11859784,한신약국,"서울특별시 성동구 왕십리로 410 상가L동 216호 (하왕십리동, 센트라스)",37.5665508,127.0247865,some,2020/05/16 09:08:00,2020/05/16 15:00:00
134,12865109,성수메디칼약국,서울특별시 성동구 아차산로 113 삼진빌딩 3층 302호 (성수동2가),37.5446283,127.0568898,some,2020/05/16 13:18:00,2020/05/16 15:00:00
135,12846724,미소진약국,서울특별시 성동구 장터길 19 (금호동3가),37.5484571,127.0180457,some,2020/05/16 14:16:00,2020/05/16 15:00:00
136,12847593,약사랑옵티마약국,서울특별시 성동구 난계로 35 (금호동1가),37.5555287,127.0244859,some,2020/05/16 10:26:00,2020/05/16 15:00:00
137,12859371,정성온누리약국,"서울특별시 성동구 왕십리로 410 상가L동 3층 319호 (하왕십리동, 센트라스)",37.5649465,127.028923,some,2020/05/16 08:53:00,2020/05/16 15:00:00
138,12811190,조은약국,"서울특별시 성동구 자동차시장1길 85 (용답동,1층)",37.5605143,127.0671622,some,2020/05/16 09:46:00,2020/05/16 15:00:00
139,12853551,튼튼약국,서울특별시 성동구 무학로 33 206호 (하왕십리동),37.5677075,127.0261746,some,2020/05/16 08:47:00,2020/05/16 15:00:00
140,12826201,공중약국,서울특별시 성동구 성덕정길 105 (성수동2가),37.5374528,127.0551269,some,2020/05/16 09:12:00,2020/05/16 15:00:00
141,12842257,하이온누리약국,"서울특별시 성동구 행당로 87 107호 (행당동, 행당동 대림아파트)",37.5573356,127.0283765,some,2020/05/16 09:08:00,2020/05/16 15:00:00
142,12848786,어울림온누리약국,서울특별시 성동구 한림말1길 16 1층 (옥수동),37.5425761,127.016486,some,2020/05/16 09:08:00,2020/05/16 15:00:00
143,11888750,한샘약국,서울특별시 성동구 무학로2길 7 1층 102호 (도선동),37.5644713,127.0309706,some,2020/05/16 09:03:00,2020/05/16 15:00:00
144,12840718,태화약국,서울특별시 성동구 아차산로7길 2 (성수동2가),37.5453194,127.0543482,some,2020/05/15 11:09:00,2020/05/16 15:00:00
145,11822155,정민약국,서울특별시 성동구 용답중앙3나길 24 (용답동),37.5678391,127.0507081,,,
146,12852139,방초한약국,"서울특별시 성동구 난계로 114-31 2층 (하왕십리동, 금호베스트빌 상가)",37.5615851,127.0259974,,,
147,12868329,금호우리약국,서울특별시 성동구 장터길 24 설당빌딩 1층 (금호동4가),37.5482015,127.0185751,,,
