,code,name,addr,latitude,longitude,remain_stat,stock_at,created_at
0,12846121,동선한약국,서울특별시 성북구 동소문로26다길 17 1층 (동선동3가),37.5946831,127.0201825,break,2020/05/16 14:35:00,2020/05/16 15:00:00
1,12862169,도담약국,서울특별시 성북구 동소문로 305 지층 (길음동),37.6073732,127.028227,break,2020/05/12 13:01:00,2020/05/16 15:00:00
2,12863122,삼성약국,서울특별시 성북구 동소문로 190 103호 (돈암동),37.5988848,127.0220926,break,2020/05/16 11:38:00,2020/05/16 15:00:00
3,12864285,보문약국,서울특별시 성북구 보문로 123 1층 (보문동2가),37.5859975,127.0187491,break,2020/05/15 11:51:00,2020/05/16 15:00:00
4,12806064,광혜당약국,서울특별시 성북구 장월로 88-1 (장위동),37.6137822,127.0490637,break,2020/05/14 12:59:00,2020/05/16 15:00:00
5,11843381,국민약국,서울특별시 성북구 정릉로10길 42-2 (정릉동),37.6080424,126.9996029,break,2020/05/16 13:05:00,2020/05/16 15:00:00
6,11844060,종암약국,서울특별시 성북구 종암로 80 1층 (종암동),37.5974334,127.03546,break,2020/05/16 09:20:00,2020/05/16 15:00:00
7,12808261,청십자약국,"서울특별시 성북구 보문로 99 1층 (보문동5가, 영광빌딩)",37.5839961,127.019842,break,2020/05/16 12:16:00,2020/05/16 15:00:00
8,12802468,21세기고려약국,서울특별시 성북구 고려대로 80 (안암동5가),37.5861235,127.0282011,break,2020/05/16 10:34:00,2020/05/16 15:00:00
9,12859770,두리약국,"서울특별시 성북구 돌곶이로 37 1층 (석관동, 상지빌딩)",37.6074625,127.0602562,break,2020/05/16 08:58:00,2020/05/16 15:00:00
10,11842474,모당약국,서울특별시 성북구 아리랑로5길 1 (동소문동7가),37.596365,127.0151558,break,2020/05/16 09:51:00,2020/05/16 15:00:00
11,11842385,용수약국,서울특별시 성북구 동소문로13나길 111 (동소문동7가),37.5961347,127.0147781,break,2020/05/14 10:28:00,2020/05/16 15:00:00
12,12861529,이층봄약국,"서울특별시 성북구 보문로 183 2층 (삼선동4가, 논현빌딩)",37.5901847,127.0147927,break,2020/05/16 11:53:00,2020/05/16 15:00:00
13,12856266,청춘한약국,"서울특별시 성북구 종암로 167 141,142호 (하월곡동, 동일하이빌뉴시티)",37.6051926,127.0309346,break,2020/03/20 16:21:00,2020/03/22 23:55:00
14,12853640,정문약국,서울특별시 성북구 고려대로 82 (안암동5가),37.586131,127.0283334,break,2020/05/16 10:59:00,2020/05/16 15:00:00
15,12868027,큰사랑약국,서울특별시 성북구 동소문로 66 (동소문동3가),37.5914188,127.0130028,break,2020/05/15 10:25:00,2020/05/16 15:00:00
16,12830020,서울약국,"서울특별시 성북구 동소문로 181 1층 (돈암동, 성북성심빌딩)",37.5983872,127.0214532,break,2020/05/16 13:11:00,2020/05/16 15:00:00
17,11845091,관문약국,서울특별시 성북구 장위로 177 (장위동),37.6159718,127.05525,break,2020/05/16 08:37:00,2020/05/16 15:00:00
18,11893303,지선약국,서울특별시 성북구 장위로 127-1 한양빌딩 2층 (장위동),37.6136758,127.0508746,break,2020/05/16 13:12:00,2020/05/16 15:00:00
19,11889276,태평양약국,서울특별시 성북구 보국문로16길 31 (정릉동),37.6114223,127.0091051,break,2020/05/16 08:26:00,2020/05/16 15:00:00
20,12827525,유민약국,서울특별시 성북구 동소문로 127-2 1층 (동선동4가),37.594402,127.0186035,break,2020/05/16 12:57:00,2020/05/16 15:00:00
21,12826421,동서옵티마약국,서울특별시 성북구 동소문로 302 1층 (하월곡동),37.6067947,127.0285473,break,2020/05/16 09:04:00,2020/05/16 15:00:00
22,12844195,신정릉우리약국,"서울특별시 성북구 보국문로 43 103호 (정릉동, 야원빌딩)",37.6081881,127.0098725,break,2020/05/16 09:01:00,2020/05/16 15:00:00
23,12844381,좋은약국,서울특별시 성북구 장월로1길 23 1층 (상월곡동),37.6072144,127.0463506,break,2020/05/16 08:55:00,2020/05/16 15:00:00
24,12862011,현약국,"서울특별시 성북구 북악산로 844 상가동 지하층 102-1호 (돈암동, 브라운스톤 돈암 아파트)",37.5979659,127.0176255,break,2020/05/16 09:11:00,2020/05/16 15:00:00
25,11844914,개미약국,서울특별시 성북구 장월로 128 (장위동),37.6168155,127.0496097,empty,2020/05/16 08:35:00,2020/05/16 15:00:00
26,12857017,이화약국,"서울특별시 성북구 길음로 20 1층 116호 (길음동, 길음뉴타운,래미안길음3차아파트 상가)",37.604726,127.022902,empty,2020/04/04 10:28:00,2020/04/05 23:55:00
27,11858061,밝은약국,"서울특별시 성북구 동소문로 248 105동 지하75호 (길음동, 삼부아파트상가)",37.6039068,127.0250147,empty,2020/05/14 11:30:00,2020/05/16 15:00:00
28,11844850,알파약국,서울특별시 성북구 장위로 42-1 (장위동),37.6141371,127.041298,empty,2020/05/16 08:28:00,2020/05/16 15:00:00
29,11843471,대림당약국,서울특별시 성북구 동소문로 231 1층 (길음동),37.6028701,127.0223893,empty,2020/05/16 08:42:00,2020/05/16 15:00:00
30,11843217,제창약국,서울특별시 성북구 정릉로27길 41 (정릉동),37.6057132,127.0135014,empty,2020/03/15 14:11:00,2020/03/15 23:55:00
31,12865583,정릉아름드리약국,서울특별시 성북구 보국문로 33 1층 106호 (정릉동),37.6073767,127.0101198,empty,2020/05/15 08:39:00,2020/05/16 15:00:00
32,11817763,신세원약국,서울특별시 성북구 길음로7길 6 길음뉴타운9단지래미안 상가 1층 7호 (길음동),37.6043358,127.0223968,empty,2020/05/16 09:18:00,2020/05/16 15:00:00
33,12867039,하얀약국,서울특별시 성북구 아리랑로 9 산맥프라자 2층 202호 (동소문동6가),37.5937028,127.0159755,empty,2020/05/11 08:40:00,2020/05/16 15:00:00
34,12866971,소원약국,서울특별시 성북구 개운사길 2 1층 (안암동5가),37.5865055,127.0294892,empty,2020/05/16 10:53:00,2020/05/16 15:00:00
35,12869589,래미안약국,"서울특별시 성북구 숭인로 50 상가동 2302호 (길음동, 래미안길음센터피스)",37.6120443,127.0285879,few,2020/05/16 09:03:00,2020/05/16 15:00:00
36,12851221,신흥약국,서울특별시 성북구 보국문로 76 (정릉동),37.6111344,127.0089637,few,2020/05/16 08:28:00,2020/05/16 15:00:00
37,12868191,진약국,서울특별시 성북구 장월로 146 1층 (장위동),37.6177397,127.0511714,few,2020/05/12 14:03:00,2020/05/16 15:00:00
38,12800864,옵티마e-편한약국,"서울특별시 성북구 삼양로13길 45 401호 (길음동, 길음뉴타운,e편한세상 대림상가)",37.610739,127.0196773,few,2020/05/16 10:00:00,2020/05/16 15:00:00
39,11841150,드림약국,서울특별시 성북구 돌곶이로27길 79 (장위동),37.610052,127.052001,few,2020/05/16 08:38:00,2020/05/16 15:00:00
40,12870277,이화약국,서울특별시 성북구 길음로 20 래미안길음3차아파트상가 1층 116호 (길음동),37.6047272,127.023066,few,2020/05/16 09:05:00,2020/05/16 15:00:00
41,12833053,계산온누리약국,서울특별시 성북구 동소문로20길 43 (동선동1가),37.5906601,127.0170403,few,2020/05/16 11:44:00,2020/05/16 15:00:00
42,11884517,민성약국,"서울특별시 성북구 종암로27길 13 101호 (종암동, 도원프라자)",37.6026495,127.0314131,few,2020/05/16 09:20:00,2020/05/16 15:00:00
43,12860808,사랑플러스약국,서울특별시 성북구 한천로 713 래미안장위퍼스트하이 516동 105호 (장위동),37.6205165,127.0521462,few,2020/05/16 12:51:00,2020/05/16 15:00:00
44,12859915,늘푸른약국,"서울특별시 성북구 돌곶이로 25 (석관동, 씨티홈)",37.6066611,127.0610515,few,2020/05/16 07:54:00,2020/05/16 15:00:00
45,12844667,보림약국,서울특별시 성북구 동소문로 15 1층 (동소문동1가),37.5893874,127.0077477,plenty,2020/05/16 09:58:00,2020/05/16 15:00:00
46,12824887,그약국,서울특별시 성북구 보국문로 46 (정릉동),37.608498,127.0101317,plenty,2020/05/16 14:31:00,2020/05/16 15:00:00
47,12833801,참약국,"서울특별시 성북구 종암로21길 3 (종암동, 용진빌딩)",37.5988295,127.0341487,plenty,2020/05/15 11:50:00,2020/05/16 15:00:00
48,12843253,금강약국,서울특별시 성북구 안암로 103 1층 (안암동5가),37.5850014,127.0313127,plenty,2020/05/16 13:11:00,2020/05/16 15:00:00
49,12828556,나약국,서울특별시 성북구 장위로15길 1 1층 (장위동),37.6143771,127.0412729,plenty,2020/05/16 08:47:00,2020/05/16 15:00:00
50,12842354,스타약국,"서울특별시 성북구 동소문로 92 1층 (동소문동5가, 강윤빌딩)",37.5921783,127.0155017,plenty,2020/05/16 11:52:00,2020/05/16 15:00:00
51,12841544,메디팜백약국,서울특별시 성북구 오패산로 57 1층 (하월곡동),37.60733,127.036218,plenty,2020/05/16 09:00:00,2020/05/16 15:00:00
52,12835749,송원온누리약국,"서울특별시 성북구 종암로 132 201호 (종암동, 종암우림카이저팰리스)",37.6019266,127.0334985,plenty,2020/05/13 10:05:00,2020/05/16 15:00:00
53,12828645,파란하늘약국,"서울특별시 성북구 성북로4길 52 417동 501호 (돈암동, 한신한진아파트제상가)",37.5958787,127.0104756,plenty,2020/05/16 08:38:00,2020/05/16 15:00:00
54,12835811,월곡우리약국,"서울특별시 성북구 월계로 52 (하월곡동, 에스엠메디칼)",37.6114752,127.0355786,plenty,2020/05/16 08:36:00,2020/05/16 15:00:00
55,12839132,팜케어건강약국,서울특별시 성북구 돌곶이로 60 (석관동),37.6091743,127.0589849,plenty,2020/05/16 08:08:00,2020/05/16 15:00:00
56,12837571,프라임온누리약국,"서울특별시 성북구 월계로40길 7 1층 109호,110호 (장위동, 센트럴타운상가)",37.6228842,127.0483878,plenty,2020/05/16 08:59:00,2020/05/16 15:00:00
57,12837181,성북녹십자약국,서울특별시 성북구 동소문로 32 (동소문동3가),37.5897559,127.0097185,plenty,2020/05/16 08:29:00,2020/05/16 15:00:00
58,12833339,성북성모약국,서울특별시 성북구 종암로 78 1층 (종암동),37.5972718,127.0355026,plenty,2020/05/16 12:10:00,2020/05/16 15:00:00
59,12836940,덕성온누리약국,"서울특별시 성북구 아리랑로 89 102호 (돈암동, 일신건영휴먼빌 상가 )",37.6012892,127.0127791,plenty,2020/05/16 11:08:00,2020/05/16 15:00:00
60,12830836,명소약국,서울특별시 성북구 돌곶이로 28 1층 (석관동),37.6070576,127.0611366,plenty,2020/05/16 08:29:00,2020/05/16 15:00:00
61,12831280,아이사랑약국,서울특별시 성북구 정릉로31길 6 (정릉동),37.6035159,127.0166609,plenty,2020/05/16 08:54:00,2020/05/16 15:00:00
62,12832863,중앙프라자약국,서울특별시 성북구 동소문로 94 1층 (동소문동5가),37.592285,127.0157279,plenty,2020/05/16 09:10:00,2020/05/16 15:00:00
63,12833100,아이메디칼약국,"서울특별시 성북구 동소문로46길 18 101호 (하월곡동, 삼전솔하임3차)",37.606851,127.029956,plenty,2020/05/16 14:00:00,2020/05/16 15:00:00
64,12841463,연세정약국,"서울특별시 성북구 화랑로 201 (장위동, 대영치과)",37.6085882,127.0522391,plenty,2020/05/14 15:07:00,2020/05/16 15:00:00
65,12839795,이화프라자약국,"서울특별시 성북구 보국문로 50 지하1층 B105호 (정릉동, 청수프라자)",37.6088572,127.0100752,plenty,2020/05/16 13:56:00,2020/05/16 15:00:00
66,12851787,콩약국,"서울특별시 성북구 길음로 20 길음뉴타운,래미안길음3차아파트 상가 3층 315호 (길음동)",37.6047272,127.023066,plenty,2020/05/16 09:19:00,2020/05/16 15:00:00
67,12847585,봄온누리약국,서울특별시 성북구 장위로 112 (장위동),37.6134737,127.0488991,plenty,2020/05/15 10:16:00,2020/05/16 15:00:00
68,12861804,아이팜약국,"서울특별시 성북구 길음로 103 304호 (길음동, 대우상가)",37.6108593,127.0179994,plenty,2020/05/16 09:28:00,2020/05/16 15:00:00
69,12865141,홀리데이약국,서울특별시 성북구 종암로 123 104호 (종암동),37.6010031,127.033173,plenty,2020/05/15 19:26:00,2020/05/16 15:00:00
70,12866296,길음시장약국,"서울특별시 성북구 길음로9길 50 101호 (길음동, 길음뉴타운)",37.6043957,127.0192342,plenty,2020/05/16 08:48:00,2020/05/16 15:00:00
71,12866440,육층약국,서울특별시 성북구 동소문로 106 유타 6층 (동선동1가),37.5925804,127.0170935,plenty,2020/05/15 09:42:00,2020/05/16 15:00:00
72,12866890,새성신약국,서울특별시 성북구 동소문로 125 골든타워 1층 101호 (동선동4가),37.5941649,127.0182308,plenty,2020/05/15 18:31:00,2020/05/16 15:00:00
73,12867152,돌곶이온누리약국,"서울특별시 성북구 화랑로 248 장위뉴타워 102호, 102-1호 (석관동)",37.61047575,127.0568486,plenty,2020/05/16 08:43:00,2020/05/16 15:00:00
74,12867519,호수온누리약국,서울특별시 성북구 동소문로47길 12 1층 (길음동),37.6089164,127.0290607,plenty,2020/05/16 09:24:00,2020/05/16 15:00:00
75,12867730,삼층약국,"서울특별시 성북구 동소문로 248 102동 314-1호 (길음동, 삼부아파트)",37.60298192,127.0236509,plenty,2020/05/16 08:33:00,2020/05/16 15:00:00
76,12868124,백화점약국,서울특별시 성북구 돌곶이로 61 (석관동),37.6091687,127.058522,plenty,2020/05/16 08:15:00,2020/05/16 15:00:00
77,12868426,월곡정약국,서울특별시 성북구 화랑로 76 코업스타클래스 지하1층 (하월곡동),37.6018543,127.0405332,plenty,2020/05/16 12:14:00,2020/05/16 15:00:00
78,12868469,센터피스정약국,"서울특별시 성북구 숭인로 50 상가동 2108호 (길음동, 래미안길음센터피스)",37.6123755,127.0281819,plenty,2020/05/16 11:10:00,2020/05/16 15:00:00
79,12869104,편안한약국,서울특별시 성북구 동소문로20다길 2 1층 (동선동1가),37.591509,127.0168752,plenty,2020/05/16 10:37:00,2020/05/16 15:00:00
80,12869279,선한약국,"서울특별시 성북구 길음로 20 길음뉴타운,래미안길음3차아파트 상가 514호, 515호 (길음동)",37.6047272,127.023066,plenty,2020/05/15 12:55:00,2020/05/16 15:00:00
81,12869368,새비홍약국,서울특별시 성북구 한천로 580 1층 (석관동),37.6113692,127.0624604,plenty,2020/05/16 08:43:00,2020/05/16 15:00:00
82,12869503,월곡보건약국,서울특별시 성북구 화랑로 61 1층 (하월곡동),37.6026516,127.0392145,plenty,2020/05/15 08:53:00,2020/05/16 15:00:00
83,12861511,미소드림약국,"서울특별시 성북구 동소문로 10 1층 (동소문동2가, 카프리빌딩)",37.5887382,127.0073399,plenty,2020/05/16 10:06:00,2020/05/16 15:00:00
84,12861081,스타온누리약국,"서울특별시 성북구 동소문로 14-1 1층 (동소문동2가, 로석빌딩)",37.5889925,127.0078986,plenty,2020/05/16 08:48:00,2020/05/16 15:00:00
85,12860051,정릉약국,서울특별시 성북구 보국문로 45 1층 (정릉동),37.6085458,127.0097638,plenty,2020/05/16 09:38:00,2020/05/16 15:00:00
86,12859036,정릉열린약국,서울특별시 성북구 보국문로 40-3 (정릉동),37.6083631,127.0101819,plenty,2020/05/16 11:40:00,2020/05/16 15:00:00
87,12847674,백세약국,서울특별시 성북구 아리랑로 117-5 (정릉동),37.6024313,127.013137,plenty,2020/05/16 09:28:00,2020/05/16 15:00:00
88,12847755,아름다운약국,"서울특별시 성북구 길음로 33 상가B동 지층 17,18,19호 (길음동, 길음뉴타운)",37.60646367,127.0215116,plenty,2020/05/16 08:25:00,2020/05/16 15:00:00
89,12847771,햇님약국,"서울특별시 성북구 길음로 33 상가A동 지하1층 2호 (길음동, 길음뉴타운)",37.6074371,127.0179663,plenty,2020/05/16 09:16:00,2020/05/16 15:00:00
90,12848221,희망약국,서울특별시 성북구 장위로 57 (장위동),37.6140305,127.043096,plenty,2020/05/15 19:54:00,2020/05/16 15:00:00
91,12848301,세계로약국,서울특별시 성북구 화랑로40길 54 (석관동),37.6134502,127.06449,plenty,2020/05/13 19:36:00,2020/05/16 15:00:00
92,12849171,한강약국,서울특별시 성북구 도봉로 3 1층 (길음동),37.6094256,127.0298602,plenty,2020/05/16 09:11:00,2020/05/16 15:00:00
93,12849596,행복한약국,서울특별시 성북구 보문로34길 59 1층 (동선동1가),37.5911147,127.0185987,plenty,2020/05/16 11:05:00,2020/05/16 15:00:00
94,12847178,올리브한성약국,서울특별시 성북구 동소문로 18-1 (동소문동2가),37.5891533,127.0083036,plenty,2020/05/16 12:10:00,2020/05/16 15:00:00
95,12850012,바른온누리약국,"서울특별시 성북구 화랑로 76 112-1호 (하월곡동, 코업스타클래스)",37.60182778,127.0404635,plenty,2020/05/16 10:00:00,2020/05/16 15:00:00
96,12851744,뉴대원약국,"서울특별시 성북구 화랑로 248 1층 101호 (석관동, 장위뉴타워)",37.61041972,127.0567612,plenty,2020/05/16 08:03:00,2020/05/16 15:00:00
97,12821675,메디칼팜약국,서울특별시 성북구 오패산로 49 3층 (하월곡동),37.6063918,127.0364541,plenty,2020/05/16 09:11:00,2020/05/16 15:00:00
98,12851809,힘챤약국,서울특별시 성북구 보국문로 16-1 (정릉동),37.6061259,127.0112895,plenty,2020/05/16 10:58:00,2020/05/16 15:00:00
99,12852589,새국민약국,서울특별시 성북구 화랑로 91 (하월곡동),37.6029883,127.0421269,plenty,2020/05/16 08:44:00,2020/05/16 15:00:00
100,12853321,동민약국,"서울특별시 성북구 오패산로 99 102호 (하월곡동, 동민빌딩)",37.6107785,127.0352036,plenty,2020/05/16 09:28:00,2020/05/16 15:00:00
101,12854778,나바론약국,서울특별시 성북구 동소문로3길 4 정화빌딩 1층 (동소문동1가),37.5891056,127.0066359,plenty,2020/05/16 10:06:00,2020/05/16 15:00:00
102,12858269,웰팜약국,"서울특별시 성북구 길음로13길 22 상가동 210호 (길음동, 길음뉴타운7단지두산위브아파트)",37.6092194,127.0192671,plenty,2020/05/16 08:33:00,2020/05/16 15:00:00
103,12851230,365약국,서울특별시 성북구 동소문로 321 1층 (길음동),37.6086394,127.029463,plenty,2020/05/16 09:08:00,2020/05/16 15:00:00
104,12820156,준약국,서울특별시 성북구 성북로5길 2 (성북동1가),37.5892611,127.0048032,plenty,2020/05/16 08:38:00,2020/05/16 15:00:00
105,11800348,선약국,서울특별시 성북구 돌곶이로41길 10 (장위동),37.6184653,127.0457034,plenty,2020/05/16 08:26:00,2020/05/16 15:00:00
106,12819352,안세약국,서울특별시 성북구 동소문로7길 2 (동소문동4가),37.5900944,127.0092003,plenty,2020/05/16 08:51:00,2020/05/16 15:00:00
107,11843195,우리약국,서울특별시 성북구 장위로 110 (장위동),37.6134942,127.0487652,plenty,2020/05/16 08:33:00,2020/05/16 15:00:00
108,11843233,온누리청수약국,서울특별시 성북구 보국문로 164 (정릉동),37.6169892,127.0032572,plenty,2020/05/13 19:42:00,2020/05/16 15:00:00
109,11843268,세종약국,서울특별시 성북구 보국문로 168 (정릉동),37.6171167,127.0028923,plenty,2020/05/15 08:39:00,2020/05/16 15:00:00
110,11843284,수보약국,서울특별시 성북구 솔샘로6길 63 (정릉동),37.6088134,127.0080654,plenty,2020/05/16 08:03:00,2020/05/16 15:00:00
111,11843667,십자약국,서울특별시 성북구 숭인로2길 82 2층 (길음동),37.6079061,127.0240143,plenty,2020/05/16 09:50:00,2020/05/16 15:00:00
112,11843896,운용약국,서울특별시 성북구 회기로 9 (종암동),37.5914444,127.0376864,plenty,2020/05/16 09:26:00,2020/05/16 15:00:00
113,11843900,영생약국,서울특별시 성북구 종암로5길 36 상가동 1호 (종암동),37.5941103,127.0338617,plenty,2020/05/16 10:32:00,2020/05/16 15:00:00
114,11844264,온누리민우약국,서울특별시 성북구 돌곶이로22길 49 (석관동),37.6107197,127.0606625,plenty,2020/05/16 14:05:00,2020/05/16 15:00:00
115,11844302,자산약국,서울특별시 성북구 화랑로5길 42 (하월곡동),37.6044227,127.0395096,plenty,2020/05/16 09:05:00,2020/05/16 15:00:00
116,11844353,구원약국,서울특별시 성북구 오패산로 16 (하월곡동),37.6036602,127.0375058,plenty,2020/05/16 09:06:00,2020/05/16 15:00:00
117,11844388,석산약국,서울특별시 성북구 오패산로1길 1 (하월곡동),37.6034744,127.0368415,plenty,2020/05/16 11:36:00,2020/05/16 15:00:00
118,11844540,화성약국,서울특별시 성북구 오패산로 73 (하월곡동),37.6085748,127.0358954,plenty,2020/05/16 09:46:00,2020/05/16 15:00:00
119,11844949,굿모닝약국,서울특별시 성북구 동소문로 16-1 (동소문동2가),37.5890862,127.0081169,plenty,2020/05/16 07:51:00,2020/05/16 15:00:00
120,11845082,수진약국,서울특별시 성북구 돌곶이로 134 (장위동),37.6144151,127.0534682,plenty,2020/05/16 08:15:00,2020/05/16 15:00:00
121,11845210,대원약국,서울특별시 성북구 돌곶이로14길 51 (석관동),37.6089175,127.0625464,plenty,2020/05/16 10:08:00,2020/05/16 15:00:00
122,11845333,메디팜믿음약국,서울특별시 성북구 돌곶이로 45 (석관동),37.608148,127.0595823,plenty,2020/05/16 08:32:00,2020/05/16 15:00:00
123,11845490,선화약국,서울특별시 성북구 돌곶이로 67 (석관동),37.6097048,127.0580054,plenty,2020/05/16 14:05:00,2020/05/16 15:00:00
124,11843152,상락약국,서울특별시 성북구 보국문로 4 (정릉동),37.6050792,127.0117546,plenty,2020/05/16 09:21:00,2020/05/16 15:00:00
125,11853913,가람약국,서울특별시 성북구 삼양로8길 3-28 (길음동),37.608944,127.0235208,plenty,2020/05/16 10:05:00,2020/05/16 15:00:00
126,11843110,소망약국,서울특별시 성북구 정릉로 322 (정릉동),37.6021847,127.0190088,plenty,2020/05/16 09:02:00,2020/05/16 15:00:00
127,11843039,정인약국,서울특별시 성북구 정릉로36길 50 (정릉동),37.6024197,127.0158906,plenty,2020/05/16 10:02:00,2020/05/16 15:00:00
128,11805340,은혜약국,서울특별시 성북구 종암로 93 1층 (종암동),37.5985729,127.0344073,plenty,2020/05/15 08:44:00,2020/05/16 15:00:00
129,11818981,보람약국,서울특별시 성북구 장위로 123 1층 (장위동),37.6135414,127.0504788,plenty,2020/05/16 09:25:00,2020/05/16 15:00:00
130,11820136,미래약국,서울특별시 성북구 고려대로 85 (안암동5가),37.5865159,127.0289014,plenty,2020/05/16 10:44:00,2020/05/16 15:00:00
131,11821060,새석관약국,서울특별시 성북구 돌곶이로 57 1층 (석관동),37.6088652,127.0588136,plenty,2020/05/16 08:02:00,2020/05/16 15:00:00
132,11823143,정약국,"서울특별시 성북구 종암로24가길 53 210호 (종암동, 종암SK아파트상가 )",37.6015254,127.0365952,plenty,2020/05/16 09:00:00,2020/05/16 15:00:00
133,11830638,삼원약국,"서울특별시 성북구 종암로 120 (종암동, 금강빌딩)",37.6010215,127.0344387,plenty,2020/05/14 09:55:00,2020/05/16 15:00:00
134,11831308,대학약국,서울특별시 성북구 고려대로 89 (안암동5가),37.5864713,127.029193,plenty,2020/05/16 10:51:00,2020/05/16 15:00:00
135,11836822,조일약국,서울특별시 성북구 삼선교로10길 38 (삼선동1가),37.5863908,127.0096929,plenty,2020/05/16 09:28:00,2020/05/16 15:00:00
136,11839856,조아약국,서울특별시 성북구 화랑로 87 1층 (하월곡동),37.6027225,127.0417908,plenty,2020/05/16 08:49:00,2020/05/16 15:00:00
137,11842041,옵티마대우미약국,서울특별시 성북구 성북로2길 8 1층 (동소문동1가),37.5890061,127.0063992,plenty,2020/05/16 07:37:00,2020/05/16 15:00:00
138,11842229,명신약국,서울특별시 성북구 종암로 180 (하월곡동),37.6058442,127.0316769,plenty,2020/05/16 11:44:00,2020/05/16 15:00:00
139,11842288,지민약국,서울특별시 성북구 삼선교로 87 (삼선동4가),37.5899724,127.0150358,plenty,2020/05/16 08:41:00,2020/05/16 15:00:00
140,11842431,새민우약국,"서울특별시 성북구 북악산로 845 203동 301호 (정릉동, 정릉쌍용아파트)",37.5993028,127.0182733,plenty,2020/05/16 13:54:00,2020/05/16 15:00:00
141,11842598,민정약국,서울특별시 성북구 북악산로22길 2 (돈암동),37.5954295,127.0226462,plenty,2020/05/16 08:47:00,2020/05/16 15:00:00
142,11842610,세원약국,"서울특별시 성북구 동소문로20가길 51 (동선동1가, 수국빌딩)",37.5937738,127.0188277,plenty,2020/05/16 08:41:00,2020/05/16 15:00:00
143,11842750,남정약국,서울특별시 성북구 보문로 71-1 (보문동5가),37.5817304,127.0210982,plenty,2020/05/16 09:08:00,2020/05/16 15:00:00
144,11842938,동부약국,서울특별시 성북구 숭인로2길 61-0 (길음동),37.6107322,127.0242816,plenty,2020/05/16 11:12:00,2020/05/16 15:00:00
145,11843047,강원약국,서울특별시 성북구 아리랑로 117-7 (정릉동),37.6024911,127.0130155,plenty,2020/05/16 12:19:00,2020/05/16 15:00:00
146,11856661,연약국,서울특별시 성북구 동소문로 12 지층 (동소문동2가),37.5888397,127.0076013,plenty,2020/05/16 13:41:00,2020/05/16 15:00:00
147,11845422,온누리진호약국,서울특별시 성북구 돌곶이로 36-1 (석관동),37.6075988,127.0605844,plenty,2020/05/16 08:52:00,2020/05/16 15:00:00
148,11859881,대영약국,서울특별시 성북구 월곡로5길 66 (종암동),37.5991903,127.0362381,plenty,2020/05/16 09:25:00,2020/05/16 15:00:00
149,11857064,온누리두산약국,"서울특별시 성북구 화랑로48길 16 101호 (석관동, 두산아파트상가)",37.6130498,127.0685315,plenty,2020/05/16 08:59:00,2020/05/16 15:00:00
150,11894105,새롬약국,서울특별시 성북구 장위로 58 1층 (장위동),37.6138426,127.0429838,plenty,2020/05/16 08:13:00,2020/05/16 15:00:00
151,11894849,동인약국,서울특별시 성북구 동소문로 107 (동선동4가),37.5931894,127.0170578,plenty,2020/05/16 09:16:00,2020/05/16 15:00:00
152,11897384,건강한약국,서울특별시 성북구 동소문로42길 14 1층 (하월곡동),37.6057331,127.0277714,plenty,2020/05/16 12:28:00,2020/05/16 15:00:00
153,11897414,온누리성모약국,"서울특별시 성북구 성북로4길 52 417동 1102호 (돈암동, 한신한진아파트)",37.5929247,127.0093961,plenty,2020/05/16 08:35:00,2020/05/16 15:00:00
154,12800716,사랑의약국,서울특별시 성북구 종암로 115 (종암동),37.6003831,127.0335726,plenty,2020/05/16 12:38:00,2020/05/16 15:00:00
155,12800929,새보건약국,서울특별시 성북구 화랑로 67 (하월곡동),37.6026284,127.0398712,plenty,2020/05/15 10:16:00,2020/05/16 15:00:00
156,12803308,부민약국,서울특별시 성북구 화랑로13길 9 1층 (하월곡동),37.6038626,127.0424707,plenty,2020/05/16 11:16:00,2020/05/16 15:00:00
157,12805459,맑은샘온누리약국,서울특별시 성북구 보문로 157 (삼선동5가),37.5884323,127.0169311,plenty,2020/05/16 09:28:00,2020/05/16 15:00:00
158,11893753,두리온누리약국,서울특별시 성북구 종암로 85 1층 (종암동),37.5978756,127.034635,plenty,2020/05/16 08:51:00,2020/05/16 15:00:00
159,12806374,메디칼약국,서울특별시 성북구 아리랑로 3 (동소문동6가),37.5929696,127.0161781,plenty,2020/05/16 08:46:00,2020/05/16 15:00:00
160,12808741,아가페온누리약국,서울특별시 성북구 정릉로 274 1층 (정릉동),37.603191,127.0137677,plenty,2020/05/15 09:07:00,2020/05/16 15:00:00
161,12809373,하나온누리약국,"서울특별시 성북구 화랑로 95 (하월곡동, 새서울신용협동조합)",37.603283,127.0424731,plenty,2020/05/14 08:50:00,2020/05/16 15:00:00
162,12811262,신중앙약국,서울특별시 성북구 종암로 68 1층 (종암동),37.596427,127.0357946,plenty,2020/05/16 08:44:00,2020/05/16 15:00:00
163,12813303,백두산약국,서울특별시 성북구 고려대로 78 (안암동5가),37.5861208,127.0280304,plenty,2020/05/12 08:38:00,2020/05/16 15:00:00
164,12814369,한솔약국,서울특별시 성북구 동소문로 57-1 (동소문동4가),37.5913996,127.0119026,plenty,2020/05/16 08:55:00,2020/05/16 15:00:00
165,12815250,참사랑약국,서울특별시 성북구 장위로 107 (장위동),37.613739,127.0487214,plenty,2020/05/16 08:26:00,2020/05/16 15:00:00
166,12817481,미소담약국,서울특별시 성북구 보국문로 49 1층 (정릉동),37.6088047,127.0096764,plenty,2020/05/16 09:44:00,2020/05/16 15:00:00
167,12817970,새부산약국,서울특별시 성북구 돌곶이로 152 1층 (장위동),37.6153216,127.0520739,plenty,2020/05/16 08:20:00,2020/05/16 15:00:00
168,12818780,옵티마시민약국,서울특별시 성북구 보문로 93 1층 (보문동5가),37.583565,127.0200658,plenty,2020/05/16 14:05:00,2020/05/16 15:00:00
169,12808415,한미약국,서울특별시 성북구 종암로 97 (종암동),37.5989708,127.0342575,plenty,2020/05/16 09:08:00,2020/05/16 15:00:00
170,11890509,정릉메디칼약국,서울특별시 성북구 정릉로 326 (정릉동),37.6020738,127.0193421,plenty,2020/05/16 08:20:00,2020/05/16 15:00:00
171,12815802,길약국,"서울특별시 성북구 성북로4길 52 3층 418-2302호 (돈암동, 스카이프라자 서관)",37.5949161,127.0102405,plenty,2020/05/16 08:40:00,2020/05/16 15:00:00
172,11889551,가까운약국,서울특별시 성북구 보문로 44 (보문동7가),37.5795484,127.0227854,plenty,2020/05/16 08:45:00,2020/05/16 15:00:00
173,11887800,W스토어 참좋은약국,"서울특별시 성북구 동소문로 34 1층 (동소문동3가, 연진빌딩)",37.5898252,127.0098925,plenty,2020/05/16 10:09:00,2020/05/16 15:00:00
174,11886960,멜론약국,서울특별시 성북구 보국문로 53 (정릉동),37.6092687,127.0094979,plenty,2020/05/16 12:21:00,2020/05/16 15:00:00
175,11868996,사랑받는 약국,서울특별시 성북구 정릉로36길 28 1층 (정릉동),37.6024112,127.01709,plenty,2020/05/16 08:57:00,2020/05/16 15:00:00
176,11875828,다정약국,"서울특별시 성북구 서경로 27 1층 (정릉동, 예닮빌딩)",37.6062227,127.0148543,plenty,2020/05/16 12:25:00,2020/05/16 15:00:00
177,11872462,성북월드팜약국,서울특별시 성북구 화랑로19길 83 1층 (장위동),37.6099287,127.051315,plenty,2020/05/16 08:45:00,2020/05/16 15:00:00
178,11889985,해오름약국,"서울특별시 성북구 솔샘로25길 20 211호 (정릉동, 풍림아파트상가)",37.6169754,127.0080858,plenty,2020/05/16 08:41:00,2020/05/16 15:00:00
179,11873990,동성온누리약국,서울특별시 성북구 안암로 105 (안암동5가),37.5851166,127.0314412,plenty,2020/05/16 14:30:00,2020/05/16 15:00:00
180,11875275,화인온누리약국,"서울특별시 성북구 종암로 167 4층 404-1호 (하월곡동, 동일하이빌뉴시티)",37.6050605,127.031103,plenty,2020/05/16 08:49:00,2020/05/16 15:00:00
181,12869431,공원내 아이사랑약국,"서울특별시 성북구 동소문로44길 17 102동 105호, 106호 (하월곡동, 성북힐스테이트)",37.6065238,127.0290147,some,2020/05/16 11:41:00,2020/05/16 15:00:00
182,11845911,건강약국,서울특별시 성북구 동소문로 71 (동소문동6가),37.5920879,127.0132007,some,2020/05/16 09:01:00,2020/05/16 15:00:00
183,11871792,인정온누리약국,서울특별시 성북구 삼선교로 14 (삼선동1가),37.5875508,127.0073805,some,2020/05/16 08:36:00,2020/05/16 15:00:00
184,12819751,길음메디칼약국,서울특별시 성북구 길음로 2 1층 (길음동),37.6043599,127.0246817,some,2020/05/16 09:03:00,2020/05/16 15:00:00
185,11845317,백경약국,서울특별시 성북구 돌곶이로 34 (석관동),37.6073873,127.0608246,some,2020/05/16 10:10:00,2020/05/16 15:00:00
186,11873116,청솔약국,서울특별시 성북구 한천로 743 (장위동),37.6224396,127.0510694,some,2020/05/16 09:15:00,2020/05/16 15:00:00
187,12830941,서현약국,서울특별시 성북구 정릉로 308 1층 (정릉동),37.6027334,127.0173848,some,2020/05/16 08:53:00,2020/05/16 15:00:00
188,11844833,인현약국,서울특별시 성북구 돌곶이로41길 33 (장위동),37.6176031,127.0463814,some,2020/05/16 08:37:00,2020/05/16 15:00:00
189,11844566,새봄약국,"서울특별시 성북구 보문로 94 (보문동4가, 화성빌딩)",37.5837231,127.0206041,some,2020/05/16 10:10:00,2020/05/16 15:00:00
190,12857220,참약사약국,"서울특별시 성북구 종암로 122 1층 (종암동, 시원빌딩)",37.6011698,127.0339268,some,2020/05/16 07:55:00,2020/05/16 15:00:00
191,12804568,정주약국,서울특별시 성북구 오패산로 63 (하월곡동),37.6077256,127.0361768,some,2020/05/15 16:57:00,2020/05/16 15:00:00
192,12858170,허브약국,서울특별시 성북구 보국문로 160 1층 (정릉동),37.6169172,127.0036338,some,2020/05/16 13:38:00,2020/05/16 15:00:00
193,11878347,혜조약국,서울특별시 성북구 종암로21길 128 (종암동),37.6035156,127.0304705,some,2020/05/16 09:48:00,2020/05/16 15:00:00
194,12859729,더사랑약국,서울특별시 성북구 아리랑로 16 1층 104호 (동선동4가),37.5942338,127.0165047,some,2020/05/16 09:04:00,2020/05/16 15:00:00
195,12845442,스마일약국,"서울특별시 성북구 보문로 180 1층 (삼선동4가, 삼선동빌딩)",37.5902652,127.0154135,some,2020/05/16 10:47:00,2020/05/16 15:00:00
196,12837628,가까운행복약국,서울특별시 성북구 고려대로13길 8 1층 (안암동2가),37.5870376,127.0237049,some,2020/05/16 10:58:00,2020/05/16 15:00:00
197,11886358,현대약국,"서울특별시 성북구 삼양로 66 B01호 (길음동, 동부크리닉)",37.6089675,127.0232915,some,2020/05/15 16:51:00,2020/05/16 15:00:00
198,12867721,열린약국,서울특별시 성북구 종암로19길 17 양지빌딩 104호 (종암동),37.5981625,127.033782,some,2020/05/16 13:12:00,2020/05/16 15:00:00
199,12841196,우주온누리약국,서울특별시 성북구 아리랑로 15 102호 (동소문동6가),37.5942669,127.0159379,some,2020/05/16 08:20:00,2020/05/16 15:00:00
200,11842725,회생약국,서울특별시 성북구 지봉로20길 57 (보문동5가),37.582418,127.0193493,,,
201,11844299,월곡약국,서울특별시 성북구 화랑로11길 6 (하월곡동),37.602611,127.0415875,,,
